{
"type": "FeatureCollection",
"name": "dallasFarmsClean",
"crs": { "type": "name", "properties": { "name": "urn:ogc:def:crs:OGC:1.3:CRS84" } },
"features": [
{ "type": "Feature", "properties": { "SiteName": "Big Tex Urban Farms", "Address": "3921 Martin Luther King Jr Blvd Dallas Texas 75210" }, "geometry": { "type": "Point", "coordinates": [ -96.758659551335199, 32.776323037758303 ] } },
{ "type": "Feature", "properties": { "SiteName": "Bonton Farms", "Address": "6915 Bexar St, Dallas, TX 75215" }, "geometry": { "type": "Point", "coordinates": [ -96.753699681658404, 32.734911032720397 ] } },
{ "type": "Feature", "properties": { "SiteName": "Dallas Half Acre Farm", "Address": "13608 Fernheath Ln, Dallas, TX 75253" }, "geometry": { "type": "Point", "coordinates": [ -96.580581191749999, 32.690723947935197 ] } },
{ "type": "Feature", "properties": { "SiteName": "Disciple City Church Orchard", "Address": "1304 S Hampton Rd, Dallas, TX 75208" }, "geometry": { "type": "Point", "coordinates": [ -96.856748302631104, 32.731741835851402 ] } },
{ "type": "Feature", "properties": { "SiteName": "Elmwood Farm", "Address": "1014 Nolte Dr, Dallas, TX 75208" }, "geometry": { "type": "Point", "coordinates": [ -96.839911155254399, 32.733854717516799 ] } },
{ "type": "Feature", "properties": { "SiteName": "Grozilla", "Address": "3921 Martin Luther King Jr Blvd Dallas TX 75210" }, "geometry": { "type": "Point", "coordinates": [ -96.758879743327, 32.776588753799402 ] } },
{ "type": "Feature", "properties": { "SiteName": "Hatcher Station Training Farm at Restorative Farm", "Address": "4527 Scyene Rd, Dallas, 75210" }, "geometry": { "type": "Point", "coordinates": [ -96.744316563207704, 32.766110543000202 ] } },
{ "type": "Feature", "properties": { "SiteName": "ILC Aquaponics", "Address": "7500 W Camp Wisdom Rd, Dallas, TX 75236" }, "geometry": { "type": "Point", "coordinates": [ -96.954058718525303, 32.663990887113201 ] } },
{ "type": "Feature", "properties": { "SiteName": "Joppy Momma's Farm", "Address": "7724 Carbondale St, Dallas, TX 75216" }, "geometry": { "type": "Point", "coordinates": [ -96.750867347556706, 32.716675410855302 ] } },
{ "type": "Feature", "properties": { "SiteName": "Liberty Street Garden, at The Meadows Foundation", "Address": "510 Liberty St, Dallas, TX 75204" }, "geometry": { "type": "Point", "coordinates": [ -96.785638367385403, 32.789015565121503 ] } },
{ "type": "Feature", "properties": { "SiteName": "Mama Ida's Teaching Garden, at Dallas Farmers Market", "Address": " 1010 S Pearl Expy, Dallas, TX 75201" }, "geometry": { "type": "Point", "coordinates": [ -96.788171218198698, 32.777919455764703 ] } },
{ "type": "Feature", "properties": { "SiteName": "Moss Haven Farms, at Moss Haven Elementary School", "Address": "9202 Moss Farm Ln, Dallas, TX 75243" }, "geometry": { "type": "Point", "coordinates": [ -96.743658088854104, 32.895479975108302 ] } },
{ "type": "Feature", "properties": { "SiteName": "Old East Dallas Urban Garden", "Address": "4701 Sycamore St, Dallas, Texas, 75204" }, "geometry": { "type": "Point", "coordinates": [ -96.773033169162304, 32.801157804201502 ] } },
{ "type": "Feature", "properties": { "SiteName": "Owenwood Farm & Community Garden", "Address": "1451 John West Rd, Dallas, Texas, 75228" }, "geometry": { "type": "Point", "coordinates": [ -96.692819999365099, 32.8080379212171 ] } },
{ "type": "Feature", "properties": { "SiteName": "The Seedling Farm at MLK Freedom Garden", "Address": "2922 Martin Luther King Jr Blvd, Dallas, TX 75215" }, "geometry": { "type": "Point", "coordinates": [ -96.766069421495601, 32.769501058189597 ] } },
{ "type": "Feature", "properties": { "SiteName": "WE over Me Farm, at Paul Quinn College", "Address": "3837 Simpson Stuart Rd, Dallas, Texas, 75241" }, "geometry": { "type": "Point", "coordinates": [ -96.751834834365596, 32.680538944952403 ] } },
{ "type": "Feature", "properties": { "SiteName": "East Dallas Community Garden", "Address": null }, "geometry": { "type": "Point", "coordinates": [ -96.774069544062996, 32.804338898114104 ] } },
{ "type": "Feature", "properties": { "SiteName": "Sunny South Community Garden", "Address": null }, "geometry": { "type": "Point", "coordinates": [ -96.747351603681196, 32.772636003263997 ] } },
{ "type": "Feature", "properties": { "SiteName": "Cultivated Chicks", "Address": "1832 Glenn Lane, Glenn Heights, TX 75154" }, "geometry": { "type": "Point", "coordinates": [ -96.8515583, 32.5555583 ] } },
{ "type": "Feature", "properties": { "SiteName": "DC Homestead Farm to Table", "Address": "4913 N. FM 1752, Savoy, TX, 75479" }, "geometry": { "type": "Point", "coordinates": [ -96.3569936, 33.6551999 ] } },
{ "type": "Feature", "properties": { "SiteName": "F.A.R.M./Farming Veterans", "Address": "700 S. Good Latimer Expwy, Dallas, TX, 75224" }, "geometry": { "type": "Point", "coordinates": [ -96.784291, 32.779586 ] } },
{ "type": "Feature", "properties": { "SiteName": "Live Oak Community Garden", "Address": "1315 N Fitzhugh, Dallas, TX, 75204" }, "geometry": { "type": "Point", "coordinates": [ -96.772972, 32.8031566 ] } },
{ "type": "Feature", "properties": { "SiteName": "Sky Blue Farm", "Address": "2715 Kirven St, Dallas, TX, 75227" }, "geometry": { "type": "Point", "coordinates": [ -96.6670563, 32.7581458 ] } },
{ "type": "Feature", "properties": { "SiteName": "Wynn's Garden", "Address": "2040 Pecan Creek Dr., Mesquite, TX, 75181" }, "geometry": { "type": "Point", "coordinates": [ -96.536290900000012, 32.7316509 ] } }
]
}
