Record_ID,Store_Name,Store_Street_Address,City,State,Zip_Code,Zip4,County,Store_Type,Latitude,Longitude,ObjectId
1699117,HEB Food Store 817,2351 W Interstate Highway 635,Irving,TX,75063,    ,DALLAS,Supermarket,32.921303,-96.983322,540
1402621,Homefoods I I I Llc,2301 W Rochelle Rd,Irving,TX,75062,7050,DALLAS,Grocery Store,32.841888,-96.97538,594
1689960,Fair Park Farmers Market,3535 Grand Ave,Dallas,TX,75210,1006,DALLAS,Farmers and Markets,32.778282,-96.763084,644
1634103,Joe V's Smart Shop 805,7700 Samuell Blvd,Dallas,TX,75227,    ,DALLAS,Supermarket,32.792328,-96.68573,1582
1627332,Abyssinia Market Irving ,4010 N Belt Ln Rd,Irving,TX,75038,    ,DALLAS,Grocery Store,32.867268,-96.981628,2054
1627921,Kelley Produce Dfm,920 S Harwood,Dallas,TX,75201,    ,DALLAS,Other,32.777588,-96.790024,2309
1397707,Cherry Grocery Store,3801 W Walnut St,Garland,TX,75042,6258,DALLAS,Grocery Store,32.916832,-96.68792,2764
245243,Target T 1836,739 N Highway 67,Cedar Hill,TX,75104,2142,DALLAS,Super Store,32.601971,-96.934326,3013
250180,Walmart Supercenter 789,200 US Highway 80 E,Mesquite,TX,75149,1656,DALLAS,Super Store,32.78878,-96.599113,3223
255060,KROGER 511,10677 E Northwest Hwy,Dallas,TX,75238,4899,DALLAS,Super Store,32.865559,-96.701599,3391
244478,NEW TRUONG NGUYEN MARKET,3555 W Walnut St,Garland,TX,75042,4016,DALLAS,Super Store,32.918491,-96.684555,3557
236670,TOM THUMB  3621,4010 N Macarthur Blvd,Irving,TX,75038,6413,DALLAS,Supermarket,32.860073,-96.957474,4491
267426,Target 1489,5301 N Garland Ave,Garland,TX,75040,2716,DALLAS,Super Store,32.965866,-96.646782,4873
228350,SUPER MERCADO MEXICO # 3,7828 Lake June Rd,Dallas,TX,75217,1601,DALLAS,Supermarket,32.734192,-96.687202,5001
286040,KROGER 448,950 E Sandy Lake Rd,Coppell,TX,75019,3109,DALLAS,Super Store,32.970753,-96.960983,5367
287398,Walmart SUPERCENTER 5147,1521 S Cockrell Hill Rd,Dallas,TX,75211,    ,DALLAS,Super Store,32.72868,-96.891541,5594
239168,SUPER MERCADO MEXICO # 4,5535 Columbia Ave,Dallas,TX,75214,5123,DALLAS,Supermarket,32.800983,-96.75666,5706
284355,Fiesta Mart 54,2940 S 1st St,Garland,TX,75041,3437,DALLAS,Super Store,32.880661,-96.63002,5736
231026,TOM THUMB  1784,1501 Pioneer Rd,Mesquite,TX,75149,6032,DALLAS,Supermarket,32.746086,-96.586266,6574
233120,Walmart SUPERCENTER 880,4100 W Airport Fwy,Irving,TX,75062,5913,DALLAS,Super Store,32.836632,-97.006607,7012
280346,Fiesta Mart 40,5334 Ross Ave,Dallas,TX,75206,7453,DALLAS,Super Store,32.80949,-96.7705,7108
312393,Albertsons 0269,2150 N Josey Ln,Carrollton,TX,75006,2991,DALLAS,Supermarket,32.974655,-96.887741,7223
278236,JERRYS SUPERMARKET #3,532 W Jefferson Blvd,Dallas,TX,75208,4722,DALLAS,Supermarket,32.743134,-96.831673,7320
309499,Walmart 3225,2501 LAKEVIEW PKWY,ROWLETT,TX,75088,    ,DALLAS,Super Store,32.908401,-96.578308,7526
309801,TOM THUMB 1973,7000 Snider Plz,Dallas,TX,75205,1335,DALLAS,Supermarket,32.850533,-96.787849,7562
308464,KIEST MARKET,3807 E Kiest Blvd,Dallas,TX,75203,4122,DALLAS,Grocery Store,32.738579,-96.789238,7666
380409,Fiesta Mart 32,9727 Webb Chapel Rd,Dallas,TX,75220,3555,DALLAS,Super Store,32.867172,-96.866028,8130
380578,Albertsons 4260,2165 Buckingham Rd,Richardson,TX,75081,5477,DALLAS,Supermarket,32.931278,-96.683952,8147
381996,TOM THUMB  3623,210 E Pleasant Run Rd,Desoto,TX,75115,3938,DALLAS,Supermarket,32.603264,-96.855812,8225
291608,Walmart SUPERCENTER 2975,3959 Broadway Blvd,Garland,TX,75043,2586,DALLAS,Super Store,32.865517,-96.606361,8624
274004,La Michoacana Meat Market 07,833 N Westmoreland Rd,Dallas,TX,75211,2524,DALLAS,Super Store,32.75116,-96.875183,8724
315515,Whole Foods Market 10140,4100 Lomo Alto Dr,Dallas,TX,75219,1535,DALLAS,Super Store,32.820919,-96.815041,8922
296764,TOM THUMB  3560,8698 Skillman St,Dallas,TX,75243,8265,DALLAS,Supermarket,32.896137,-96.720451,9264
297044,Walmart Supercenter 2427,9301 Forest Lane,DALLAS,TX,75243,    ,DALLAS,Super Store,32.91087,-96.738815,9283
332357,KROGER 559,1406 W Walnut St,Garland,TX,75042,5841,DALLAS,Super Store,32.914948,-96.65007,9355
297107,La Michoacana Meat Market 02,8702 Spring Valley Rd,Dallas,TX,75240,4232,DALLAS,Supermarket,32.939621,-96.752419,9373
297668,TOM THUMB  1786,4215 S Carrier Pkwy,Grand Prairie,TX,75052,3203,DALLAS,Supermarket,32.671246,-97.003349,9719
290356,SARAS MEDITERRANEAN FOOD,750 S Sherman St,Richardson,TX,75081,4028,DALLAS,Super Store,32.942101,-96.739517,10186
349235,COX FARMS MARKET,1026 S Main St,Duncanville,TX,75137,2320,DALLAS,Supermarket,32.641109,-96.908379,10657
351871,TOM THUMB  3563,633 W Wheatland Rd,Duncanville,TX,75116,4517,DALLAS,Supermarket,32.648357,-96.922798,10832
437147,TOM THUMB  2526,39 Arapaho Village,Richardson,TX,75080,    ,DALLAS,Supermarket,32.962391,-96.749229,11078
342875,TOM THUMB  2642,5809 E Lovers Ln,Dallas,TX,75206,4324,DALLAS,Supermarket,32.85112,-96.76696,11373
342686,Walmart STORE 896,2225 W Interstate 20,Grand Prairie,TX,75052,3926,DALLAS,Super Store,32.675476,-97.035652,11583
339842,TOM THUMB  1781,106 N Denton Tap Rd,Coppell,TX,75019,2138,DALLAS,Supermarket,32.97057,-96.992004,11818
317988,TOM THUMB  3597,11920 Preston Rd,Dallas,TX,75230,2711,DALLAS,Supermarket,32.910892,-96.802399,12112
256065,TOM THUMB  4606,1509 Pioneer Rd,Mesquite,TX,75149,    ,DALLAS,Supermarket,32.745941,-96.583542,12471
265405,Albertsons 4129,2828 Motley Dr,Mesquite,TX,75150,3425,DALLAS,Supermarket,32.802673,-96.646255,13053
339383,ALBERTSONS 4133,427 E Fm 1382,Cedar Hill,TX,75104,6027,DALLAS,Supermarket,32.591988,-96.936859,13942
457504,Walmart 1055,5302 N GARLAND AVE,GARLAND,TX,75040,    ,DALLAS,Super Store,32.962402,-96.642502,14542
457677,TOM THUMB  2578,2535 Firewheel Pkwy,Garland,TX,75040,2862,DALLAS,Supermarket,32.938431,-96.604256,14559
360677,KROGER 495,515 S Macarthur Blvd,Irving,TX,75060,2730,DALLAS,Super Store,32.809299,-96.960091,15796
437977,Whole Foods Market 10227,11700 Preston Rd,Dallas,TX,75230,6112,DALLAS,Super Store,32.908531,-96.801857,15798
372399,TOM THUMB  3522,522 Preston Royal,Dallas,TX,75230,    ,DALLAS,Supermarket,32.894958,-96.803238,15818
361068,Fiesta Mart 57,2951 S Buckner Blvd,Dallas,TX,75227,6908,DALLAS,Super Store,32.761608,-96.684319,15951
417613,KROGER 213,752 Wynnewood Village Shp Ctr,Dallas,TX,75224,1831,DALLAS,Super Store,32.723282,-96.832298,16004
441834,SUPER MERCADO MEXICO # 1,501 S Rosemont Ave,Dallas,TX,75208,5841,DALLAS,Grocery Store,32.741077,-96.84816,16160
404012,SAVERS COST PLUS # 525,504 N O Connor Rd,Irving,TX,75061,8421,DALLAS,Super Store,32.818645,-96.947861,17107
330068,Fiesta Mart 53,975 E Irving Blvd,Irving,TX,75060,3151,DALLAS,Super Store,32.812954,-96.935005,17565
475130,Target Store 1775,16371 Coit Rd,Dallas,TX,75248,    ,DALLAS,Super Store,32.975258,-96.768814,18069
503883,KROGER 893,1919 FAITHON LUCAS,MESQUITE,TX,75181,    ,DALLAS,Super Store,32.743679,-96.55265,18913
1594446,Cedar Hill Farmers Market ,300 Houston St,Cedar Hill,TX,75104,2678,DALLAS,Farmers and Markets,32.587799,-96.956619,18942
480897,KROGER 450,3600 Gus Thomasson Rd,Mesquite,TX,75150,6200,DALLAS,Super Store,32.813625,-96.634895,19074
481365,KROGER 518,5665 E Mockingbird Ln,Dallas,TX,75206,5380,DALLAS,Super Store,32.836658,-96.770271,19106
540698,Albertsons 4231,215 N Carrier Pkwy,Grand Prairie,TX,75050,5425,DALLAS,Supermarket,32.743946,-97.018181,19692
540797,TOM THUMB 2990,7117 Inwood Rd,Dallas,TX,75209,4898,DALLAS,Supermarket,32.844452,-96.821503,19750
428179,KROGER  527,200 W Camp Wisdom Rd,Duncanville,TX,75116,3329,DALLAS,Super Store,32.660671,-96.909241,20120
388521,La Michoacana Meat Market 10,1630 E Main St,Grand Prairie,TX,75050,6032,DALLAS,Supermarket,32.747978,-96.982925,20574
432879,Foodland Markets #3,1314 S Buckner Blvd,Dallas,TX,75217,1742,DALLAS,Super Store,32.734982,-96.681625,20958
428155,TOM THUMB 2561,925 Northwest Hwy,Garland,TX,75041,5827,DALLAS,Supermarket,32.862823,-96.642097,20993
400454,La Potosina Carniceria,5302 Singleton Blvd,Dallas,TX,75212,3243,DALLAS,Grocery Store,32.778069,-96.908272,21606
403290,Walmart SUPERCENTER 3224,555 W I 30,Garland,TX,75043,5702,DALLAS,Super Store,32.842365,-96.59774,21888
407622,KROGER 545,1001 N BECKLEY,DESOTO,TX,75115,    ,DALLAS,Super Store,32.605659,-96.823433,22019
507656,Walmart Supercenter 471,150 N Interstate 35 E,Lancaster,TX,75146,1844,DALLAS,Super Store,32.591316,-96.82196,22249
411039,Fiesta Mart 58,8060 Spring Valley Rd,Dallas,TX,75240,3827,DALLAS,Super Store,32.938869,-96.766922,22285
406601,TOM THUMB  3650,14999 Preston Rd,Dallas,TX,75254,9116,DALLAS,Supermarket,32.952484,-96.805229,22706
563877,Albertsons 4289,320 Casa Linda Plz,Dallas,TX,75218,3414,DALLAS,Supermarket,32.834888,-96.702156,22945
306778,KROGER 588,9140 Forest Ln,Dallas,TX,75243,4202,DALLAS,Super Store,32.908112,-96.745049,23035
306851,Super Mercado Monterrey,300 E Jefferson Blvd,Dallas,TX,75203,2632,DALLAS,Super Store,32.744846,-96.820168,23043
566515,KROGER 429,2201 W Grauwyler Rd,Irving,TX,75061,4345,DALLAS,Super Store,32.828999,-96.975128,23122
443887,Richland Market Grocery Inc.,9410 Walnut St,Dallas,TX,75243,2111,DALLAS,Other,32.923607,-96.73645,24088
597503,La Michoacana Meat Market 13,800 W Jefferson Blvd,Dallas,TX,75208,4923,DALLAS,Supermarket,32.743134,-96.836021,24337
596612,TOM THUMB  2503,4001 Villanova St,Dallas,TX,75225,5317,DALLAS,Supermarket,32.864254,-96.802139,24998
444807,Malone's Cost Plus 3,323 Golden Triangle Shp Ctr,Dallas,TX,75224,4423,DALLAS,Super Store,32.696178,-96.840179,25010
716935,TOM THUMB  3614,315 S Hampton Rd,Dallas,TX,75208,5618,DALLAS,Supermarket,32.74218,-96.856956,26353
420449,TARGET STORE T 1784,6419 Skillman St,Dallas,TX,75231,7109,DALLAS,Super Store,32.864704,-96.744537,26529
370981,HEB Central Market 552,5750 E Lovers Ln,Dallas,TX,75206,2921,DALLAS,Supermarket,32.850964,-96.768822,26606
420861,Jimmy's Food Store,4901 Bryan St,Dallas,TX,75206,7613,DALLAS,Super Store,32.804131,-96.773636,26786
486383,Walmart SUPERCENTER  2976,915 N Town East Blvd,Mesquite,TX,75150,4743,DALLAS,Super Store,32.812256,-96.609375,27052
722326,Walmart NEIGHBORHOOD MKT  5021,2275 Gus Thomasson Rd,Dallas,TX,75228,3002,DALLAS,Super Store,32.836021,-96.674706,28275
686314,Walmart SUPERCENTER  2649,1635 Market Pl,Irving,TX,75063,7239,DALLAS,Super Store,32.919243,-96.967888,28388
1583989,Joppy Momma Farm,7728 Carbondale St,Dallas,TX,75216,4113,DALLAS,Farmers and Markets,32.716854,-96.750969,28514
511100,LA AZTECA MEAT MARKET,3701 W Northwest Hwy,Dallas,TX,75220,4961,DALLAS,Supermarket,32.862423,-96.857307,28610
425067,KROGER 461,5190 Highway 78,Sachse,TX,75048,4202,DALLAS,Super Store,32.970215,-96.604645,29626
691140,Walmart  2667,7401 Samuell Blvd,Dallas,TX,75228,6166,DALLAS,Super Store,32.79417,-96.689323,29756
425493,KROGER 517,160 NORTH COIT RD,RICHARDSON,TX,75080,    ,DALLAS,Super Store,32.952911,-96.767601,29848
492732,Fiesta Mart 29,611 W JEFFERSON BLVD,DALLAS,TX,75208,    ,DALLAS,Super Store,32.743187,-96.833054,29881
462252,KROGER 528,4142 Cedar Springs Rd,Dallas,TX,75219,3522,DALLAS,Super Store,32.813343,-96.812172,30233
838402,El Rancho 1614,14211 Coit Rd,Dallas,TX,75254,2862,DALLAS,Super Store,32.942604,-96.770508,30980
570481,Albertsons 4265,5710 Broadway Blvd,Garland,TX,75043,5818,DALLAS,Supermarket,32.846088,-96.593925,31042
555829,Walmart NEIGHBORHOOD MARKET  2974,1501 Buckingham Rd,Richardson,TX,75081,5304,DALLAS,Super Store,32.931419,-96.697342,31573
472437,Fiesta Mart 34,3030 S Lancaster Rd,Dallas,TX,75216,4455,DALLAS,Super Store,32.71043,-96.803268,32131
571438,TOM THUMB 2643,14280 Marsh Ln,Addison,TX,75001,3857,DALLAS,Supermarket,32.938877,-96.855698,32913
496172,KROGER 436,235 E Fm 1382,Cedar Hill,TX,75104,2146,DALLAS,Super Store,32.598297,-96.94194,33173
799092,TARGET STORE T 55,212 MEDALLION SHOPPING CTR,DALLAS,TX,75214,    ,DALLAS,Super Store,32.856903,-96.752258,33457
494900,Apna Bazaar Grocery,2000 Old Denton Rd,Carrollton,TX,75006,3181,DALLAS,Grocery Store,32.968933,-96.91124,33484
466187,KROGER 577,7505 N Macarthur Blvd,Irving,TX,75063,7511,DALLAS,Super Store,32.909023,-96.96096,34050
466803,Hong Kong Market Place,9780 Walnut St,Dallas,TX,75243,2356,DALLAS,Super Store,32.921951,-96.719048,34200
534052,TOM THUMB  2534,6333 E Mockingbird Ln,Dallas,TX,75214,2692,DALLAS,Supermarket,32.837471,-96.75412,34404
560727,Malone's Cost Plus 2,7007 Lake June Rd,Dallas,TX,75217,1327,DALLAS,Super Store,32.734428,-96.701683,35057
574999,KROGER 492,11925 Elam Rd,Balch Springs,TX,75180,2820,DALLAS,Super Store,32.719452,-96.620216,36422
575323,KROGER  870,3770 Belt Line Rd,Addison,TX,75001,4301,DALLAS,Super Store,32.951031,-96.852676,36578
528247,TOM THUMB  1540,3757 Forest Ln,Dallas,TX,75244,7127,DALLAS,Supermarket,32.909679,-96.853104,36889
845954,Super H Mart,2625 Old Denton Rd,Carrollton,TX,75007,5111,DALLAS,Super Store,32.984859,-96.910042,39318
536218,Walmart Supercenter 2105,4122 LBJ Freeway,Dallas,TX,75244,5121,DALLAS,Super Store,32.924229,-96.839355,39469
538392,Walmart Supercenter 5288,220 N Highway 175,Seagoville,TX,75159,1841,DALLAS,Super Store,32.649773,-96.533981,39597
844255,Target T 2334,39739 Lyndon B Johnson Fwy,Dallas,TX,75237,3560,DALLAS,Super Store,32.650108,-96.862343,39600
588011,Walmart  1118,12300 Lake June Rd,Balch Springs,TX,75180,1636,DALLAS,Super Store,32.733917,-96.615707,39901
704764,La Michoacana Meat Market 04,6770 Greenville Ave,Dallas,TX,75231,6402,DALLAS,Supermarket,32.867874,-96.766632,40052
614621,Walmart 3285,621 UPTOWN BLVD,CEDAR HILL,TX,75104,    ,DALLAS,Super Store,32.597431,-96.947006,40131
621772,KROGER 402,3612 N Belt Line Rd,Irving,TX,75062,7805,DALLAS,Super Store,32.855103,-96.990852,41763
624731,La Michoacana Meat Market 9,1506 S Buckner Blvd,Dallas,TX,75217,1705,DALLAS,Supermarket,32.738071,-96.682343,42202
711106,Walmart SUPERCENTER 1800,1801 Marketplace Dr,Garland,TX,75041,5605,DALLAS,Super Store,32.863049,-96.652061,42502
714056,TOM THUMB 3608,7700 W Northwest Hwy,Dallas,TX,75225,2288,DALLAS,Supermarket,32.865372,-96.774239,42536
585111,La Michoacana Meat Market Dallas 18,2002 N Galloway Ave,Mesquite,TX,75149,1500,DALLAS,Supermarket,32.790993,-96.610725,42996
665845,Super 1 Foods 649,125 Hall Rd,Seagoville,TX,75159,2915,DALLAS,Supermarket,32.649834,-96.54863,43685
661353,KROGER 191,313 W Pioneer Pkwy,Grand Prairie,TX,75051,    ,DALLAS,Super Store,32.709351,-97.005638,43783
641296,KROGER 209,525 N GALLOWAY,MESQUITE,TX,75149,    ,DALLAS,Super Store,32.771667,-96.599243,44482
765476,Hunt Food Store,7932 Great Trinity Forest Way,Dallas,TX,75217,6609,DALLAS,Supermarket,32.711452,-96.685417,44558
1653522,Sprouts Farmers Market 164,1322 N Hampton Rd,Dallas,TX,75208,1306,DALLAS,Supermarket,32.762844,-96.856506,45215
805380,La Michoacana Meat Market 27,2004 E Belt Line Rd,Carrollton,TX,75006,5738,DALLAS,Supermarket,32.953079,-96.88607,46271
807510,TARGET STORE T 13,13131 Montfort Dr,Dallas,TX,75240,5112,DALLAS,Super Store,32.92802,-96.81353,46589
807520,TARGET STORE T 875,2417 N Haskell Ave,Dallas,TX,75204,3707,DALLAS,Super Store,32.803734,-96.791542,46612
806891,Cynjoe International Market Inc 2,9203 Skillman St,Dallas,TX,75243,7300,DALLAS,Grocery Store,32.902946,-96.71611,46964
770855,LA MICHOACANA MEAT MARKET DALLAS 24,8282 Spring Valley Rd,Dallas,TX,75240,3843,DALLAS,Supermarket,32.939812,-96.762131,47129
591691,HIEP THAI FOOD STORE,3347 W Walnut St,Garland,TX,75042,7157,DALLAS,Super Store,32.91713,-96.681709,48504
593053,KROGER 526,536 Centennial Blvd,Richardson,TX,75081,5147,DALLAS,Super Store,32.93681,-96.720604,48884
782409,La Michoacana Meat Market 30,3380 Lombardy Ln,Dallas,TX,75220,3341,DALLAS,Supermarket,32.866463,-96.866585,49527
993693,ALDI 75050 75050,2505 Fort Worth Ave,Dallas,TX,75211,1745,DALLAS,Supermarket,32.759384,-96.86364,49981
993704,ALDI 75066 75066,912 E Irving Blvd,Irving,TX,75060,3150,DALLAS,Supermarket,32.811512,-96.935722,49987
693935,PACKING HOUSE MARKET,3117 Malcolm X Blvd,Dallas,TX,75215,2428,DALLAS,Supermarket,32.767704,-96.767181,50069
681246,TARGET STORE 1430,601 S Plano Rd,Richardson,TX,75081,4512,DALLAS,Super Store,32.939968,-96.696724,50185
677513,KROGER 689,17194 PRESTON RD,DALLAS,TX,75248,    ,DALLAS,Super Store,32.985085,-96.802544,50506
1396114,La Zacatecana Meat Market,2376 Lavon Dr,Garland,TX,75040,9001,DALLAS,Grocery Store,32.935768,-96.622925,51034
776038,ZAM ZAM SUPERMARKET,3901 W Northgate Dr,Irving,TX,75062,1954,DALLAS,Grocery Store,32.857109,-97.002594,51045
776057,El Rancho 1608,1515 S Buckner Blvd,Dallas,TX,75217,1769,DALLAS,Super Store,32.738293,-96.684135,51048
776376,SUPER MERCADO MONTERREY 5,5306 W Davis St,Dallas,TX,75211,1113,DALLAS,Supermarket,32.749554,-96.913368,51080
825729,TARGET STORE T 2234,4701 Lakeview Pkwy,Rowlett,TX,75088,4037,DALLAS,Super Store,32.908829,-96.558647,51213
773725,Walmart SUPERCENTER 3406,15220 Montfort Rd,Dallas,TX,75248,6401,DALLAS,Super Store,32.95882,-96.816124,51237
874377,Market Street 1564,700 N Denton Tap Rd,Coppell,TX,75019,4507,DALLAS,Supermarket,32.98872,-96.991608,51542
774101,CARROLLTON INDO PAK SUPER MARKET,2548 Dickerson Pkwy,Carrollton,TX,75006,1387,DALLAS,Grocery Store,32.982067,-96.919418,51765
774507,El Rancho 1610,655 W Illinois Ave,Dallas,TX,75224,1814,DALLAS,Super Store,32.722397,-96.831894,51874
656965,Walmart Supercenter 1216,1213 E Trinity Mills Rd,Carrollton,TX,75006,1446,DALLAS,Super Store,32.984077,-96.905563,52039
656472,TOM THUMB  1783,2645 Arapaho Rd,Garland,TX,75044,7941,DALLAS,Supermarket,32.960854,-96.667015,52215
784986,SPROUTS FARMERS MARKET 103,11732 MARSH LANE,DALLAS,TX,75229,    ,DALLAS,Supermarket,32.908691,-96.855949,53001
700028,TOM THUMB  2544,10455 N Central Expy,Dallas,TX,75231,2213,DALLAS,Supermarket,32.888847,-96.771912,53147
1000836,Natural Grocers By Vitamin Cottage U045,9440 Garland Rd,Dallas,TX,75218,3461,DALLAS,Supermarket,32.831966,-96.700912,54065
667751,TOM THUMB 3637,1380 W Campbell Rd,Richardson,TX,75080,2814,DALLAS,Supermarket,32.980186,-96.76693,56325
669581,JERRYS SUPERMARKET #1,1719 Singleton Blvd,Dallas,TX,75212,3856,DALLAS,Supermarket,32.778728,-96.847191,56476
789363,La Michoacana Meat Market 26,3500 N Belt Line Rd Ste 110,Irving,TX,75062,7803,DALLAS,Super Store,32.854008,-96.991135,57222
787964,Walmart SUPERCENTER 3432,951 W Belt Line Rd,Desoto,TX,75115,3741,DALLAS,Super Store,32.592823,-96.879791,57783
813639,TARGET STORE T 2243,5270 S State Highway 360,Grand Prairie,TX,75052,8307,DALLAS,Super Store,32.643097,-97.059959,57856
736759,Walmart NEIGHBORHOOD MARKET #3341 3341,2305 N Central Expy,Dallas,TX,75204,3800,DALLAS,Super Store,32.800842,-96.793503,58741
1423685,Abeba Foods,6882 Shadybrook Ln,Dallas,TX,75231,6502,DALLAS,Grocery Store,32.871056,-96.762566,60684
832356,ASAFO Market,2905 Arkansas Ln,Grand Prairie,TX,75052,7620,DALLAS,Grocery Store,32.705956,-97.04895,61298
916592,Patel Brothers,1009 W Rochelle Rd,Irving,TX,75062,5436,DALLAS,Super Store,32.845169,-96.957993,62376
916992,Target Store 2572,1629 N Town East Blvd,Mesquite,TX,75150,4193,DALLAS,Super Store,32.813953,-96.621307,62736
833399,La Michoacana Meat Market 28,2432 N FITZHUGH,DALLAS,TX,75204,    ,DALLAS,Other,32.81189,-96.782822,63594
853054,El Rancho 1615,10020 Marsh Ln,Dallas,TX,75229,6081,DALLAS,Super Store,32.881378,-96.856071,63687
852732,EL CENTRO SUPERMARKET,8231 Park Ln,Dallas,TX,75231,6022,DALLAS,Grocery Store,32.871887,-96.763206,63863
834503,LA MICHOACANA MEAT MARKET,202 W Pioneer Pkwy,Grand Prairie,TX,75051,4945,DALLAS,Supermarket,32.709618,-97.005432,64557
918646,Texas King Irving zabiha halal meat,3455 N Belt Line Rd,Irving,TX,75062,7823,DALLAS,Supermarket,32.853935,-96.993599,65028
749838,LA MICHOACANA MEAT MARKET 23,2114 W Kingsley Rd,Garland,TX,75041,4133,DALLAS,Supermarket,32.87785,-96.658691,65222
673886,Wrights Family Food,1050 S Belt Line Rd,Dallas,TX,75253,5001,DALLAS,Other,32.686996,-96.58918,65672
673987,KROGER 557,6850 N SHILOH ROAD,GARLAND,TX,75044,    ,DALLAS,Super Store,32.977314,-96.663826,65719
917801,Sprouts Farmers Market 113,362 E Fm 1382,Cedar Hill,TX,75104,6024,DALLAS,Supermarket,32.592899,-96.93795,65737
1286442,Walmart 5824,1951 MILITARY PKWY,MESQUITE,TX,75149,    ,DALLAS,Super Store,32.769215,-96.628494,66805
752667,LA AZTECA MEAT MARKET 6,2712 W Irving Blvd,Irving,TX,75061,4235,DALLAS,Other,32.829426,-96.982956,70299
923743,Costco Wholesale 0636,250 W Highway 67,Duncanville,TX,75137,4415,DALLAS,Super Store,32.621494,-96.909515,73497
951142,Aldi 20,2926 S Buckner Blvd,Dallas,TX,75227,6907,DALLAS,Supermarket,32.762135,-96.682602,75726
951145,Aldi 29,1518 Buckingham Rd,Garland,TX,75042,4203,DALLAS,Supermarket,32.931229,-96.697456,75737
951151,Aldi 30,9779 Forest Ln,Dallas,TX,75243,5701,DALLAS,Supermarket,32.909599,-96.71859,75743
951152,Aldi 56,2440 W Illinois Ave,Dallas,TX,75233,1106,DALLAS,Supermarket,32.719368,-96.858192,75749
941384,Aldi 54,1601 W Northwest Hwy,Garland,TX,75041,5232,DALLAS,Supermarket,32.864193,-96.652092,76305
1656789,Sam's Club 4925,2218 Greenville Ave,Dallas,TX,75206,7122,DALLAS,Super Store,32.816544,-96.769455,76460
941431,Aldi 72,8034 Chrysalis Dr,Dallas,TX,75237,3613,DALLAS,Supermarket,32.649277,-96.858665,76503
938751,Whole Foods Market 10239,8190 Park Ln,Dallas,TX,75231,5908,DALLAS,Super Store,32.869167,-96.768326,76866
941188,Aldi 16,3635 Gus Thomasson Rd,Mesquite,TX,75150,3630,DALLAS,Supermarket,32.813343,-96.636688,76947
944728,Aldi 23,13548 Preston Rd,Dallas,TX,75240,5212,DALLAS,Supermarket,32.932446,-96.80349,79834
944729,Aldi 35,5828 Abrams Rd,Dallas,TX,75214,1698,DALLAS,Supermarket,32.85598,-96.749344,79838
944731,Aldi 42,4120 Gaston Ave,Dallas,TX,75246,1409,DALLAS,Supermarket,32.794353,-96.775429,79841
944733,Aldi 58,2926 Belt Line Rd,Irving,TX,75062,5247,DALLAS,Supermarket,32.846554,-96.992188,79848
944734,Aldi 70,424 E Pioneer Pkwy,Grand Prairie,TX,75051,4943,DALLAS,Supermarket,32.709579,-96.999352,79852
944738,Aldi 32,3500 Lakeview Pkwy,Rowlett,TX,75088,4005,DALLAS,Supermarket,32.906593,-96.568649,79864
944740,Aldi 34,1549 E Belt Line Rd,Richardson,TX,75081,4630,DALLAS,Supermarket,32.945438,-96.696663,79872
910135,El Rancho 1619,2550 Gus Thomasson Rd,Dallas,TX,75228,3017,DALLAS,Super Store,32.834724,-96.671883,80508
763337,Target Store 947,9440 Marsh Ln,Dallas,TX,75220,4924,DALLAS,Super Store,32.861778,-96.855225,80610
763350,TARGET STORE T 1116,554 W Interstate 20,Grand Prairie,TX,75052,6932,DALLAS,Super Store,32.678349,-97.010071,80624
763351,Target Store 1032,7845 N Macarthur Blvd,Irving,TX,75063,7516,DALLAS,Super Store,32.913502,-96.962479,80630
1041160,Afribbean Market 2,2717 E Belt Line Rd,Carrollton,TX,75006,5437,DALLAS,Other,32.953308,-96.859512,81207
1042149,HEB Central Market 653,10720 Preston Rd,Dallas,TX,75230,8818,DALLAS,Supermarket,32.893948,-96.802803,81774
864314,INDIAN SUPERSTORE 1,3555 Murphy Rd,Richardson,TX,75082,5216,DALLAS,Other,32.999821,-96.613251,82448
1297150,La Azteca Meat Market 11,4611 Columbia Ave,Dallas,TX,75226,2304,DALLAS,Grocery Store,32.793037,-96.76635,82758
910404,Viva Food Market,6760 Shadybrook Ln,Dallas,TX,75231,6508,DALLAS,Grocery Store,32.868118,-96.762985,84336
912839,Vitamin Cottage Natural Food Market U028,677 W Campbell Rd,Richardson,TX,75080,3302,DALLAS,Supermarket,32.978062,-96.742973,84562
864993,Sam's Club 6482,5555 S Buckner Blvd,Dallas,TX,75228,6193,DALLAS,Super Store,32.793835,-96.687057,85115
865038,Sam's Club 8242,12000 McCree Rd,Dallas,TX,75238,5299,DALLAS,Super Store,32.867867,-96.675491,85131
865068,Sam's Club 8248,9461 Webb Chapel Rd,Dallas,TX,75220,    ,DALLAS,Super Store,32.862274,-96.86084,85151
865135,Sam's Club 4783,5150 N Garland Ave,Garland,TX,75040,2711,DALLAS,Super Store,32.961029,-96.644211,85189
865171,Sam's Club 8269,2325 W Interstate 20,Grand Prairie,TX,75052,3927,DALLAS,Super Store,32.675461,-97.036896,85200
865188,Sam's Club 6372,6185 Retail Rd,Dallas,TX,75231,7807,DALLAS,Super Store,32.861755,-96.754166,85209
865198,Sam's Club 8282,2900 W Wheatland Rd,Dallas,TX,75237,3535,DALLAS,Super Store,32.647472,-96.866882,85233
865202,Sam's Club 6265,1213 Market Place Blvd,Irving,TX,75063,    ,DALLAS,Super Store,32.919994,-96.962311,85342
960093,Aldi 64,333 S Cedar Ridge Dr,Duncanville,TX,75116,4526,DALLAS,Supermarket,32.647968,-96.926315,85983
1098039,El Rancho 1625,4121 Gaston Ave,Dallas,TX,75246,1410,DALLAS,Super Store,32.794472,-96.776222,86148
1098822,Nanak Subzi Mandi,4550 W Buckingham Rd,Garland,TX,75042,4575,DALLAS,Grocery Store,32.930122,-96.701843,86208
1049231,Walmart 5624,13100 Josey Ln,Dallas,TX,75234,6351,DALLAS,Super Store,32.923492,-96.88031,86703
1298703,Migalitos 5,3160 Saturn Rd,Garland,TX,75041,4317,DALLAS,Grocery Store,32.877686,-96.648178,87050
1298823,Whole Foods Market 10627,6471 N MacArthur,Irving,TX,75039,    ,DALLAS,Super Store,32.896717,-96.959,87060
1051838,Kroger 509,4901 Maple Ave,Dallas,TX,75235,8210,DALLAS,Super Store,32.815002,-96.828667,90348
1106209,Dallas Superstore,3212 N Jupiter Rd,Garland,TX,75044,6581,DALLAS,Super Store,32.947323,-96.681335,91926
1107005,Whole Foods Market 10473,5100 Belt Line Rd,Addison,TX,75254,    ,DALLAS,Super Store,32.953911,-96.822639,91971
1109094,Walmart Neighborhood Market 3015,2827 S Buckner Blvd,Dallas,TX,75227,6906,DALLAS,Super Store,32.75993,-96.684471,93125
1134811,Walmart Supercenter 5810,7075 W Wheatland Rd,Dallas,TX,75249,1067,DALLAS,Super Store,32.647285,-96.945534,93363
1058021,ALDI 75043,3128 Forest Ln,Dallas,TX,75234,7005,DALLAS,Supermarket,32.908802,-96.870644,93513
1058023,ALDI 75063,805 E Beltline Rd,Cedar Hill,TX,75234,    ,DALLAS,Supermarket,32.590012,-96.924713,93514
897957,El Rancho 1616,4450 W Jefferson Blvd,Dallas,TX,75211,4623,DALLAS,Super Store,32.73634,-96.892212,94731
898197,Target Store 255,3333 W Airport Fwy,Irving,TX,75062,5992,DALLAS,Super Store,32.838238,-96.991112,94834
898228,Target Store 1850,3730 Belt Line Rd,Addison,TX,75001,4301,DALLAS,Super Store,32.95118,-96.854233,94891
1137421,El Rancho 1628,2770 Valwood Pkwy,Dallas,TX,75234,3530,DALLAS,Super Store,32.937325,-96.888084,95326
1179253,Jtc Bless Import,9220 Skillman St,Dallas,TX,75243,7325,DALLAS,Super Store,32.902676,-96.71476,95800
1016239,Walmart Supercenter 5823,6185 Retail Rd,Dallas,TX,75231,7807,DALLAS,Super Store,32.861755,-96.754166,96285
1110794,Trader Joe's 403,2001 Greenville Ave,Dallas,TX,75206,7123,DALLAS,Supermarket,32.814808,-96.770515,96312
1151501,Trader Joe's 405,5550 W Lovers Ln,Dallas,TX,75209,4268,DALLAS,Supermarket,32.851162,-96.818413,98317
1079419,Sprouts Farmers Market 126,1800 N Henderson Ave,Dallas,TX,75206,7525,DALLAS,Supermarket,32.810452,-96.773384,98558
1153959,WinCo Foods 124,800 S Cockrell Hill Rd,Duncanville,TX,75137,2622,DALLAS,Supermarket,32.644829,-96.891296,99111
1152356,Walmart Supercenter 5673,8015 Woodbridge Parkway,Sachse,TX,75048,    ,DALLAS,Super Store,32.974319,-96.568863,99527
1153192,ALDI 75074,102 W Pleasant Run Rd,Desoto,TX,75115,3910,DALLAS,Supermarket,32.604092,-96.857628,99998
1238904,Irving Subzi Mandi Inc,10010 N Macarthur Blvd,Irving,TX,75063,5001,DALLAS,Grocery Store,32.941021,-96.95195,100391
1084753,Walmart Supercenter 5889,9410 Webb Chapel Rd,Dallas,TX,75220,4936,DALLAS,Super Store,32.862423,-96.857307,102601
1239406,Trader Joe's 400,4525 Cole Ave,Dallas,TX,75205,4277,DALLAS,Supermarket,32.822384,-96.789413,102676
964690,Vitamin Cottage Natural Food Markets Inc U039,11661 Preston Rd,Dallas,TX,75230,6173,DALLAS,Supermarket,32.908443,-96.805611,103098
964736,India Import Supermarket,2521 W Airport Fwy,Irving,TX,75062,6018,DALLAS,Supermarket,32.838654,-96.979576,103432
1025752,Ann's Health Food Center & Market,2634 S Zang Blvd,Dallas,TX,75224,2816,DALLAS,Grocery Store,32.715549,-96.830177,105373
1118472,Walmart Supercenter 3014,200 Short Blvd,Dallas,TX,75232,1300,DALLAS,Super Store,32.683762,-96.825348,105513
1124481,Grocery Services North 3,6921 Lake June Rd,Dallas,TX,75217,1325,DALLAS,Grocery Store,32.734432,-96.702873,108320
1124484,Grocery Services North 4,1050 N Westmoreland Rd,Dallas,TX,75211,2411,DALLAS,Grocery Store,32.755562,-96.873985,108321
1125308,Walmart Neighborhood Market 2433,101 W Buckingham Rd,Garland,TX,75040,4646,DALLAS,Super Store,32.93195,-96.631721,108413
1077073,Kroger 529,4241 Capitol Ave,Dallas,TX,75204,    ,DALLAS,Super Store,32.806561,-96.78891,109002
1208585,WinCo Foods 131,1122 W Centerville Rd,Garland,TX,75041,5998,DALLAS,Supermarket,32.857647,-96.646561,109382
1218121,Walmart Supercenter 8930,15757 Coit Rd,Dallas,TX,75248,    ,DALLAS,Super Store,32.963451,-96.76899,110384
1216467,World Food Warehouse,13434 Floyd Cir,Dallas,TX,75243,1504,DALLAS,Supermarket,32.930676,-96.745796,110473
1215803,Trader Joe's 407,14856 Preston Rd,Dallas,TX,75254,6846,DALLAS,Supermarket,32.95055,-96.803429,110517
1220898,99 Ranch Market 105,2532 Old Denton Rd,Carrollton,TX,75006,1347,DALLAS,Super Store,32.980339,-96.909798,111065
1126763,Walmart Neighborhood Market 4046,1855 S Garland Ave,Garland,TX,75040,7648,DALLAS,Super Store,32.896168,-96.650116,112292
1027448,La Michoacana Meat Market 37,8707 E R L Thornton Fwy,Dallas,TX,75228,7113,DALLAS,Super Store,32.795849,-96.693207,112506
1673308,Joe V's Smart Shop 815,2407 W Airport Fwy,Irving,TX,75062,6016,DALLAS,Supermarket,32.838634,-96.977585,114621
1673353,H MART HARRY HINES LLC.,2534 Royal Ln,Dallas,TX,75229,3479,DALLAS,Super Store,32.894924,-96.894676,114966
1224164,Walmart Neighborhood Market 3204,820 E Belt Line Rd,Cedar Hill,TX,75104,2215,DALLAS,Super Store,32.58976,-96.92469,115505
1195125,Nutritional Products of Texas 10,1111 W Ledbetter Dr,Dallas,TX,75224,4960,DALLAS,Grocery Store,32.691338,-96.841042,115571
1195132,Nutritional Products of Texas 18,3312 N Buckner Blvd,Dallas,TX,75228,5650,DALLAS,Grocery Store,32.805401,-96.682335,115576
1523774,Sprouts Farmers Market 160,6465 E Mockingbird Ln,Dallas,TX,75214,2473,DALLAS,Supermarket,32.837482,-96.751335,115624
1229243,Sprouts Farmers Market 145,3001 Lakeview Pkwy,Rowlett,TX,75088,    ,DALLAS,Supermarket,32.907711,-96.57357,116560
1031912,Kea Import Foods,580 Castleglen Dr,Garland,TX,75043,5804,DALLAS,Grocery Store,32.845242,-96.594032,116573
1133420,El Rancho 1626,1540 S 1st St,Garland,TX,75040,7942,DALLAS,Super Store,32.898632,-96.630829,116913
1627116,Wooltari Mall,1016 W Trinity Mills Rd,Carrollton,TX,75006,1336,DALLAS,Grocery Store,32.983974,-96.911377,118654
1276704,Lmmm Dallas 42 Ltd. 42,1109 E Highway 67,Duncanville,TX,75137,2701,DALLAS,Supermarket,32.645748,-96.887199,119322
1312430,Grocery Services North 9,2851 Dairy Rd.,Garland,TX,75041,    ,DALLAS,Grocery Store,32.882473,-96.622261,119591
1668279,Mecca Market 140,6504 Highway 78,Sachse,TX,75048,3259,DALLAS,Grocery Store,32.98019,-96.588478,119858
1250321,ALDI 75086 75086,2601 W Bardin Rd,Grand Prairie,TX,75052,    ,DALLAS,Supermarket,32.672253,-97.044518,119901
1170550,Grocery Services North 8,828 S Carrier Pkwy,Grand Prairie,TX,75051,    ,DALLAS,Grocery Store,32.735748,-97.015541,120045
1172796,Walmart Neighborhood Market 6851,6750 Murphy Rd,Sachse,TX,75048,    ,DALLAS,Super Store,32.983154,-96.61335,120826
1582353,Sheger Grocery,10190 Forest Ln,Dallas,TX,75243,5033,DALLAS,Grocery Store,32.908649,-96.709991,122503
1315493,WinCo Foods 146,2620 N Josey Ln,Carrollton,TX,75007,5599,DALLAS,Supermarket,32.987179,-96.890694,122967
1577819,Cox Farms Market,778 Fort Worth Ave,Dallas,TX,75208,1805,DALLAS,Supermarket,32.769218,-96.835129,123501
1345640,Lmmm Dallas 5 Ltd,934 E Grauwyler Rd,Irving,TX,75061,2802,DALLAS,Supermarket,32.829613,-96.934494,123784
1282590,Costco 1266,8055 Churchill Way,Dallas,TX,75251,    ,DALLAS,Super Store,32.918381,-96.769753,124729
1282744,Walmart 4503,2650 S STATE HIGHWAY 161,GRAND PRAIRIE,TX,75052,    ,DALLAS,Super Store,32.707203,-97.021698,125162
1203561,Nutritional Products of Texas 22,1111 W Airport Fwy,Irving,TX,75062,6204,DALLAS,Grocery Store,32.837364,-96.959717,125938
1316119,Jf African & Asian Market,1741 N Galloway Ave,Mesquite,TX,75149,2256,DALLAS,Other,32.786713,-96.606071,126129
1346258,Food-rite Market,2215 S Marsalis Ave,Dallas,TX,75216,2312,DALLAS,Supermarket,32.720852,-96.814606,127166
1319502,White Rock Farmers Market,9044 Santa Clara Dr,Dallas,TX,75218,4137,DALLAS,Farmers and Markets,32.824654,-96.704453,127480
1181286,Walmart Neighborhood Market 7224,350 N Bluegrove Rd,Lancaster,TX,75146,    ,DALLAS,Super Store,32.59071,-96.787392,128447
1181288,Walmart Neighborhood Market 7232,108 W Parkerville Rd,Desoto,TX,75115,8074,DALLAS,Super Store,32.575245,-96.857178,128455
1283878,Sprouts Farmers Market 149,7110 Skillman St,Dallas,TX,75231,5652,DALLAS,Supermarket,32.87606,-96.734711,128466
1207130,Sam's Club 6376,4062 LBJ Freeway,Dallas,TX,75244,    ,DALLAS,Super Store,32.924095,-96.839737,129159
1525572,Palms African Foodmart,2661 Midway Rd,Carrollton,TX,75006,2368,DALLAS,Grocery Store,32.986732,-96.843925,129501
1526516,Food Basket 25,3540 Simpson Stuart Rd,Dallas,TX,75241,4251,DALLAS,Supermarket,32.672798,-96.761284,129566
1208080,Whole Foods Market 10505,2510 McKinney Ave,Dallas,TX,75201,1909,DALLAS,Super Store,32.795353,-96.80201,130158
1185510,Trader Joe's 401,7939 Walnut Hill Ln,Dallas,TX,75230,    ,DALLAS,Supermarket,32.880157,-96.771767,132228
1349134,Tom Thumb 3296,2380 N Field St,Dallas,TX,75201,    ,DALLAS,Supermarket,32.789066,-96.806854,132318
1588910,La Carreta Meat Market 1,11501 Elam Rd,Balch Springs,TX,75180,2707,DALLAS,Super Store,32.719952,-96.628052,132327
1367374,La Super Economica 6,2402 Gus Thomasson Rd,Dallas,TX,75228,3007,DALLAS,Grocery Store,32.83469,-96.674469,133391
1395270,La Michoacana Meat Market,2441 W Walnut St,Garland,TX,75042,6668,DALLAS,Super Store,32.916424,-96.664894,134174
1324785,Komart Market Place,2240 Royal Ln,Dallas,TX,75229,7817,DALLAS,Super Store,32.895481,-96.903389,134246
1323668,Tom Thumb 5803,2713 Live Oak St,Dallas,TX,75204,5729,DALLAS,Supermarket,32.789108,-96.789169,134565
1325425,Grocery Services North 7,8202 Spring Valley Rd,Dallas,TX,75240,4004,DALLAS,Grocery Store,32.939117,-96.763474,135304
867442,Foodland Markets 51,8411 Lake June Rd,Dallas,TX,75217,2138,DALLAS,Super Store,32.73505,-96.675392,135850
1300980,Lmmm Dallas 41 Ltd. 41,2600 S Zang Blvd,Dallas,TX,75224,2816,DALLAS,Supermarket,32.716351,-96.830177,136651
864658,El Ahorro Supermarket 12,201 S Rogers Rd,Irving,TX,75060,2608,DALLAS,Super Store,32.814182,-96.963493,137659
1396765,Cox Farms Market 3,13091 Bee Street,Farmers Branch,TX,75234,    ,DALLAS,Grocery Store,32.923107,-96.895828,137963
1396877,Sprouts Farmers Market 155,1220 N Town East Blvd,Mesquite,TX,75150,7665,DALLAS,Supermarket,32.809177,-96.61367,137999
1371256,El Rancho 1640,3535 N Belt Line Rd,Irving,TX,75062,7804,DALLAS,Super Store,32.855293,-96.992287,138103
1370755,El Centro Meat Market,5614 E R L Thornton Fwy,Dallas,TX,75223,1908,DALLAS,Grocery Store,32.790947,-96.745705,138880
1329196,El Rancho 1633,2506 S Belt Line Rd,Grand Prairie,TX,75052,5342,DALLAS,Super Store,32.708447,-96.994156,140333
1359826,Viva Foods,535 N Plano Rd,Garland,TX,75042,5909,DALLAS,Grocery Store,32.917709,-96.700401,141705
1371333,Costco Wholesale 655,8282 Park Ln,Dallas,TX,75231,6099,DALLAS,Super Store,32.871372,-96.762932,141794
1238915,EL RIO GRANDE LATIN MARKET 8,10909 Webb Chapel Rd,Dallas,TX,75229,3739,DALLAS,Super Store,32.897202,-96.871063,142300
865646,Fiesta Mart 77,3460 Webb Chapel Ext,Dallas,TX,75220,6751,DALLAS,Super Store,32.864159,-96.863663,142332
1255901,Fiesta Mart 210,10121 Lake June Rd,Dallas,TX,75217,5347,DALLAS,Super Store,32.734188,-96.650131,143534
1255904,Fiesta Mart 212,3230 Martin Luther King Jr Blvd,Dallas,TX,75210,2417,DALLAS,Super Store,32.773727,-96.763161,143535
1255906,Fiesta Mart 213,1450 W Pleasant Run Rd,Lancaster,TX,75146,1392,DALLAS,Super Store,32.604275,-96.785904,143536
1390256,Jtc Bless Imports,3435 N Belt Line Rd,Irving,TX,75062,7826,DALLAS,Super Store,32.853752,-96.99398,144282
1361870,Ayo Farmers Market,4070 N Belt Line Rd,Irving,TX,75038,5009,DALLAS,Farmers and Markets,32.863842,-96.991615,144601
1361312,AYS Venture LLC,1546 Rowlett Rd,Garland,TX,75043,1978,DALLAS,Grocery Store,32.858101,-96.580254,144675
1351445,Grocery Services North 5,310 N Barnes Dr,Garland,TX,75042,7124,DALLAS,Grocery Store,32.915539,-96.678665,145404
1310640,Grocery Services North 10,6012 Abrams Rd,Dallas,TX,75231,8001,DALLAS,Grocery Store,32.858028,-96.748016,146348
1379389,El Rancho 1637,3460 W Walnut St,Garland,TX,75042,7118,DALLAS,Super Store,32.917133,-96.682205,146675
1385565,Maru Grocery,8353 Park Ln,Dallas,TX,75231,6607,DALLAS,Grocery Store,32.87112,-96.760719,149548
1266918,Tom Thumb 3569,3878 Oak Lawn Ave,Dallas,TX,75219,    ,DALLAS,Supermarket,32.815796,-96.802338,150387
1266919,Tom Thumb 3570,7331 Gaston Ave,Dallas,TX,75214,4131,DALLAS,Supermarket,32.811543,-96.730263,150388
1387848,Shahrzad Mediterranean Market and Grill,970 N Coit Rd,Richardson,TX,75080,6264,DALLAS,Supermarket,32.960903,-96.768753,150414
1460426,Southpoint Community Market,2839 S Ervay St,Dallas,TX,75215,3110,DALLAS,Grocery Store,32.762306,-96.778809,150693
1427699,Desi Grocery,6875 Shadybrook Ln,Dallas,TX,75231,6605,DALLAS,Grocery Store,32.870686,-96.762787,151240
1353687,Al Nimer Roastery Inc,815 S Sherman St,Richardson,TX,75081,4031,DALLAS,Grocery Store,32.940742,-96.739899,152014
1352738,Ib Richardson Llc,1425 E Belt Line Rd,Richardson,TX,75081,4617,DALLAS,Supermarket,32.94545,-96.698502,152179
1461297,Dallas Farmers Market,1010 S Pearl Expy,Dallas,TX,75201,6022,DALLAS,Farmers and Markets,32.777683,-96.788635,153596
1329963,Central Market 747,4349 W Northwest Hwy,Dallas,TX,75220,3854,DALLAS,Supermarket,32.863922,-96.835594,153653
1429156,Pleasant Grove Meat Market,6923 Scyene Rd,Dallas,TX,75227,6539,DALLAS,Other,32.763577,-96.701508,154006
1331043,MSK Petro Inc,3025 Webb Chapel Ext,Dallas,TX,75220,6205,DALLAS,Grocery Store,32.85862,-96.86869,154866
1381409,Cash Saver 74,2223 Singleton Blvd,Dallas,TX,75212,3783,DALLAS,Super Store,32.778851,-96.860458,155938
1331897,Don Cuco Meat Market,1701 S Peachtree Rd,Balch Springs,TX,75180,1109,DALLAS,Grocery Store,32.74543,-96.631287,156374
1463877,Mary Produce,4008 Urban Ave,Dallas,TX,75227,3841,DALLAS,Grocery Store,32.772507,-96.696297,156450
1463642,Candy Girl Chicks & Livestock,7811 Kansas Ave,Dallas,TX,75241,5337,DALLAS,Farmers and Markets,32.652195,-96.82251,156597
1391840,Cash Saver 97,303 E Camp Wisdom Rd,Duncanville,TX,75116,2705,DALLAS,Supermarket,32.662991,-96.902763,156809
1435253,Indopak Supermarket Richardson,323 E Polk St,Richardson,TX,75081,4139,DALLAS,Supermarket,32.947853,-96.729355,159026
1341358,Target T3292,8335 Westchster Dr,Dallas,TX,75225,    ,DALLAS,Super Store,32.864059,-96.806618,160393
1476044,El Cubano Latin Market 1,555 W Airport Freeway,Irving,TX,75060,    ,DALLAS,Grocery Store,32.839466,-96.954041,162841
1436402,The Provision House,13619 Inwood Rd,Dallas,TX,75244,4630,DALLAS,Farmers and Markets,32.934971,-96.825172,163026
1453823,La Michoacana Supermarket #12,5200 Gus Thomasson Rd,Mesquite,TX,75150,1094,DALLAS,Supermarket,32.834503,-96.657875,163330
1453110,El Potosino Meat Market ,1017 Fort Worth St,Grand Prairie,TX,75050,5435,DALLAS,Grocery Store,32.742996,-97.017738,163493
1633148,G & G Food Mart,1456 Belt Line Rd,Garland,TX,75044,8213,DALLAS,Grocery Store,32.94418,-96.649887,165158
1650164,Lakewood Tower Farmers Market- Good Local Markets,6301 Gaston Ave,Dallas,TX,75214,3922,DALLAS,Farmers and Markets,32.812977,-96.754539,168618
1657462,Trippleg African Food Mart Llc,108 W Belt Line Rd,Cedar Hill,TX,75104,2059,DALLAS,Other,32.588638,-96.944305,171668
1491235,For Oak Cliff Farmers Market NAFMNP,907 E Ledbetter Dr,Dallas,TX,75216,6859,DALLAS,Farmers and Markets,32.684544,-96.811714,172059
1491488,Lakewood Village Farmers Market 2,6434 E Mockingbird Ln,Dallas,TX,75214,2494,DALLAS,Farmers and Markets,32.835384,-96.751465,172326
1490867,Good Fortune Supermarket Of Dallas Inc,400 N Greenville Ave,Richardson,TX,75081,6202,DALLAS,Super Store,32.953274,-96.727989,172959
1517658,Afghan Asian Halal Market,1750 Alma Rd,Richardson,TX,75081,1863,DALLAS,Other,32.970467,-96.716721,174523
1481667,Jasmine Market,820 S Sherman St,Richardson,TX,75081,4030,DALLAS,Grocery Store,32.940971,-96.740738,174915
1468441,Stop & Shop,1313 N Jim Miller Rd,Dallas,TX,75217,1366,DALLAS,Grocery Store,32.734798,-96.700752,177081
1502127,Restorative Farms Market At Hatcher Station,4716 Elsie Faye Heggins St,Dallas,TX,75210,1464,DALLAS,Farmers and Markets,32.773232,-96.737114,179222
1501699,Dallas Food Depot,3107 S Cockrell Hill Rd,Dallas,TX,75236,1105,DALLAS,Supermarket,32.706966,-96.892326,179299
1494268,Sprouts Farmers Market 159,2500 S Carrier Pkwy,Grand Prairie,TX,75052,5096,DALLAS,Supermarket,32.70787,-97.01622,179710
1486607,Sprouts Farmers Market 158,7750 N Macarthur Blvd,Irving,TX,75063,7514,DALLAS,Supermarket,32.912205,-96.956573,181139
1470181,Crooked Fork Land & Cattle,2020 W Wheatland Rd,Dallas,TX,75232,4517,DALLAS,Farmers and Markets,32.646557,-96.850655,182795
1487493,Fresh Stop Farm Stands,1451 John West Rd,Dallas,TX,75228,5451,DALLAS,Farmers and Markets,32.808037,-96.692818,184855
1496596,Gebeta Ethiopain Grocery,520 N Jupiter Rd,Garland,TX,75042,5477,DALLAS,Grocery Store,32.917793,-96.682495,186381
1599333,Joe V's Smart Shop #803 803,4101 W Wheatland Rd,Dallas,TX,75237,4070,DALLAS,Supermarket,32.648605,-96.886719,186864
1509429,Don Cuco Meat Market Don Cuco#3,1518 Northwest Hwy,Garland,TX,75041,5287,DALLAS,Other,32.863129,-96.650208,187471
1544218,Brothers Mart And Bakery 1,9205 Skillman St,Dallas,TX,75243,7324,DALLAS,Grocery Store,32.904072,-96.716133,188754
1539946,Banaadir Supermarket,3008 N Belt Line Rd,Irving,TX,75062,6877,DALLAS,Grocery Store,32.847954,-96.990891,190858
1540267,Albertson's 36,2200 W Shady Grove Rd,Irving,TX,75060,5056,DALLAS,Supermarket,32.799889,-96.974785,191085
1548688,Bonton Farms NAFMNP,6907 Bexar St,Dallas,TX,75215,5410,DALLAS,Farmers and Markets,32.734547,-96.754059,192082
1552260,Ubuntu Farmers Market,4466 S Marsalis Ave,Dallas,TX,75216,6738,DALLAS,Farmers and Markets,32.690498,-96.813667,196251
1559616,El Rio Grande Latin Market #10,3035 N Buckner Blvd,Dallas,TX,75228,5262,DALLAS,Super Store,32.807945,-96.684364,196809
1551700,La Michoacana Supermarket #28,1150 W Kiest Blvd,Dallas,TX,75224,3231,DALLAS,Other,32.705498,-96.841095,196929
1163191,Farmer's Delite 001,440 S Hampton Rd,Desoto,TX,75115,5728,DALLAS,Other,32.582962,-96.85688,197432
828420,La Azteca Meat Market 2,3046 Forest Ln,Dallas,TX,75234,7706,DALLAS,Super Store,32.909573,-96.874939,197856
865645,Fiesta Mart 70,1235 S Josey Ln,Carrollton,TX,75006,7679,DALLAS,Super Store,32.950489,-96.888519,198178
1663611,Dynasty African Market LLC,234 N Highway 67,Cedar Hill,TX,75104,2703,DALLAS,Grocery Store,32.59214,-96.94313,198438
1528797,Golden Star Halal Market Afghan Bakery And Cafe,300 Terrace Dr,Richardson,TX,75081,6062,DALLAS,Grocery Store,32.951744,-96.72773,198804
1208173,World Of Spices,13340 Audelia Rd,Dallas,TX,75243,2472,DALLAS,Grocery Store,32.930679,-96.717941,200242
1553500,La Azteca Meat Market 12,1423B N Belt Line Rd,Irving,TX,75061,1517,DALLAS,Grocery Store,32.829849,-96.993919,200467
1078369,La Michoacana Meat Market Dallas 39,24315 Lyndon B Johnson Fwy,Balch Springs,TX,75180,1709,DALLAS,Supermarket,32.691788,-96.632286,200772
856269,SPROUTS FARMERS MARKET 106,1343 W Campbell Rd,Richardson,TX,75080,2815,DALLAS,Supermarket,32.977051,-96.765999,201105
939462,LA MICHOACANA MEAT MARKET D#34 34,6535 Duck Creek Dr,Garland,TX,75043,3644,DALLAS,Grocery Store,32.84639,-96.597557,202204
738950,EL RIO GRANDE LATIN MARKET 1,5308 Maple Ave,Dallas,TX,75235,8142,DALLAS,Super Store,32.817867,-96.831612,202380
1554877,D&o Food Market,101 S Interstate 45 Service Rd,Hutchins,TX,75141,4186,DALLAS,Grocery Store,32.648117,-96.708519,203401
853555,EL RIO GRANDE LATIN MARKET 3,2515 W Jefferson Blvd,Dallas,TX,75211,2629,DALLAS,Super Store,32.748169,-96.858887,204767
1067559,Uac International Food,940 E Belt Line Rd,Richardson,TX,75081,3714,DALLAS,Other,32.947418,-96.711662,205423
1556977,Desi Brothers,100 S Central Expy,Richardson,TX,75080,6321,DALLAS,Grocery Store,32.949497,-96.737511,207351
1671226,Target Store T2907,655 W Illinois,Dallas,TX,75224,    ,DALLAS,Super Store,32.72142,-96.830612,208873
1679052,Royal International Food Market,901 Belt Line Rd,Garland,TX,75040,3654,DALLAS,Grocery Store,32.940933,-96.640114,210108
867079,Fiesta Mart 71,3434 W Illinois Ave,Dallas,TX,75211,8709,DALLAS,Super Store,32.720261,-96.876991,210354
1278464,Deshi Bazzar Inc,2417 W Airport Fwy,Irving,TX,75062,6016,DALLAS,Other,32.837433,-96.977264,211090
835742,Hong Kong Market Place,2615 W Pioneer Pkwy,Grand Prairie,TX,75051,3536,DALLAS,Super Store,32.711773,-97.045059,211502
1530043,Savannah Fresh Meat African Market Llc,4550 Gus Thomasson Rd,Mesquite,TX,75150,1752,DALLAS,Grocery Store,32.826015,-96.647247,211548
1278600,Carniceria La Altena,2803 N Macarthur Blvd,Irving,TX,75062,4446,DALLAS,Grocery Store,32.84483,-96.959183,212432
1189937,Super Mercado 5 Estrellas,9648 Overlake Dr,Dallas,TX,75220,6210,DALLAS,Grocery Store,32.857903,-96.870514,212679
930410,EL RIO GRANDE LATIN MARKET 7,10325 Lake June Rd,Dallas,TX,75217,5333,DALLAS,Super Store,32.735825,-96.645782,212753
1094827,India Bazaar,535 W. Airport Freeway,Irving,TX,75062,    ,DALLAS,Grocery Store,32.839432,-96.95269,213243
1634507,Shin Chon Meat Wholesale Market,11422 Harry Hines Blvd,Dallas,TX,75229,2130,DALLAS,Grocery Store,32.897446,-96.889839,213632
1230542,Myanmar Store 1,6887 Shadybrook Ln,Dallas,TX,75231,6605,DALLAS,Grocery Store,32.87093,-96.762688,214197
1531162,La Michoacana Meat Market D33 ,3301 Gus Thomasson Rd,Mesquite,TX,75150,4005,DALLAS,Grocery Store,32.809433,-96.634804,214424
865665,Malone's Cost Plus 7,333 S Saint Augustine Dr,Dallas,TX,75217,7494,DALLAS,Super Store,32.707966,-96.658043,215074
881235,Whole Foods Market 10283,2118 Abrams Rd,Dallas,TX,75214,3918,DALLAS,Super Store,32.815369,-96.752792,215741
1263768,Savers Cost Plus 5250,1610 S Westmoreland Rd,Dallas,TX,75211,5767,DALLAS,Super Store,32.727879,-96.874184,215857
1532627,Salam Supermarkets,9780 Lyndon B Johnson Fwy,Dallas,TX,75243,6845,DALLAS,Grocery Store,32.900589,-96.719643,216743
979705,La Azteca Meat Market 8,1550 N Interstate 35 E,Lancaster,TX,75134,2604,DALLAS,Supermarket,32.607716,-96.822556,217284
935686,Super Mercado Monterrey,1120 S Westmoreland Rd,Dallas,TX,75211,5651,DALLAS,Super Store,32.733463,-96.873421,219133
1633748,Shantaba LLC,2506 W Parmer Ln,Irving,TX,75063,    ,DALLAS,Super Store,32.923302,-96.970009,219494
1297569,Cash Saver 19,2130 E Ledbetter Dr,Dallas,TX,75216,7435,DALLAS,Super Store,32.686478,-96.788643,220434
868512,Fiesta Mart 74,11445 Garland Rd,Dallas,TX,75218,2598,DALLAS,Super Store,32.851482,-96.682068,221431
1289901,Supermercado Monterrey 13,435 E Danieldale Rd,Duncanville,TX,75137,4007,DALLAS,Super Store,32.63295,-96.901573,221705
1270961,Good Local Markets - Tyler Street 4,9150 Garland Rd,Dallas,TX,75218,3998,DALLAS,Farmers and Markets,32.828812,-96.706841,222166
1017597,India Bazaar,8600 N Macarthur Blvd,Irving,TX,75063,6900,DALLAS,Other,32.924156,-96.954422,222792
867690,Savers Cost Plus 5253,1713 S Belt Line Rd,Grand Prairie,TX,75051,3308,DALLAS,Super Store,32.7216,-96.994141,223491
1671727,Safari Mediterranean Market 2,7501 Lake Ridge Pkwy,Grand Prairie,TX,75054,    ,DALLAS,Grocery Store,32.592308,-97.035179,223881
911827,Fiesta Mart 75,1332 S Plano Rd,Richardson,TX,75081,5955,DALLAS,Super Store,32.932701,-96.702248,224525
868011,El Rio Grande Supermercado 4,901 W Miller Rd,Garland,TX,75041,1854,DALLAS,Super Store,32.895866,-96.642601,224600
1130097,Southwest Farmers Market 2,4460 W Walnut St,Garland,TX,75042,4102,DALLAS,Grocery Store,32.916515,-96.699814,224708
1262543,El Rio Grande Latin Market 9,2106 N Galloway Ave,Mesquite,TX,75150,5730,DALLAS,Super Store,32.793709,-96.612007,224991
814168,Fiesta Mart 65,2225 W Ledbetter Dr,Dallas,TX,75224,4713,DALLAS,Super Store,32.692665,-96.855453,225361
867603,Fiesta Mart 68,6401 Abrams Rd,Dallas,TX,75231,7804,DALLAS,Super Store,32.86195,-96.744843,225554
1297577,Cash Saver 46,1201 W Camp Wisdom Rd,Dallas,TX,75232,3446,DALLAS,Super Store,32.662251,-96.842911,225560
867089,Fiesta Mart 73,1145 W Airport Fwy,Irving,TX,75062,6220,DALLAS,Super Store,32.837349,-96.96138,225706
1658880,Hackney Food,4815 Collins Ave,Dallas,TX,75210,1329,DALLAS,Grocery Store,32.778,-96.740776,225847
1098629,Taqueria Y Carniceria,2820 Walnut Hill Ln,Dallas,TX,75229,5710,DALLAS,Super Store,32.880367,-96.882103,226581
894470,Sprouts Farmers Market 108,110 W Sandy Lake Rd,Coppell,TX,75019,    ,DALLAS,Supermarket,32.970623,-96.995277,227209
838895,EL RIO GRANDE LATIN MARKET 2,215 S Center St,Grand Prairie,TX,75051,1724,DALLAS,Super Store,32.743629,-97.003433,227940
975704,Super Mercado El Cerrito,10880 Ferguson Rd,Dallas,TX,75228,2616,DALLAS,Super Store,32.842865,-96.663338,228225
1569432,Himalayan Valley Foods Llc,5249 Broadway Blvd,Garland,TX,75043,7024,DALLAS,Grocery Store,32.851097,-96.598907,228575
1566463,El Rancho 1643,2314 W Illinois Ave,Dallas,TX,75224,1638,DALLAS,Super Store,32.719238,-96.856277,229776
1565731,La Michoacana Supermarket # 30,4202 Pioneer Rd,Balch Springs,TX,75180,3537,DALLAS,Grocery Store,32.712879,-96.604469,230058
1650163,White Rock Farmers Market- Good Local Markets,1450 Old Gate Ln,Dallas,TX,75218,4196,DALLAS,Farmers and Markets,32.824921,-96.703407,232516
1603107,Los Molina Carniceria,911 E Davis St,Mesquite,TX,75149,4779,DALLAS,Grocery Store,32.765598,-96.586929,236186
1595585,Shine Grocery Store ,8361 Park Ln,Dallas,TX,75231,6607,DALLAS,Grocery Store,32.871418,-96.760864,236472
1614231,African Food Market,6301 Abrams Rd,Dallas,TX,75231,7857,DALLAS,Grocery Store,32.861164,-96.745796,239950
1424613,Tom Thumb 3311,2727 Live Oak St,Dallas,TX,75204,5729,DALLAS,Supermarket,32.789303,-96.789513,240252
1345798,Abugeda Grocery Llc,12101 Greenville Ave,Dallas,TX,75243,9329,DALLAS,Grocery Store,32.912689,-96.74559,240349
1613664,J&S Asian Grocery,4301 Saturn Rd,Garland,TX,75041,    ,DALLAS,Grocery Store,32.865414,-96.649124,240373
1615055,TRADER JOE'S COPPELL 456,120 S Denton Tap Rd,Coppell,TX,75019,3297,DALLAS,Supermarket,32.968334,-96.992432,240761
1624179,Simply Grace Gardens NAFMNP,1839 Kings Cross Dr,Lancaster,TX,75134,4142,DALLAS,Farmers and Markets,32.613445,-96.789986,245093
1620098,AB Indian Grocery Store,4750 N Jupiter Rd,Garland,TX,75044,5860,DALLAS,Grocery Store,32.95974,-96.681976,245790
1634192,India Cash & Carry,1900 Market Place Blvd,Irving,TX,75063,3901,DALLAS,Super Store,32.920719,-96.972183,247367
1413573,Aso Rock Market Inc,10061 Whitehurst Dr,Dallas,TX,75243,0621,DALLAS,Grocery Store,32.900188,-96.719643,247852
1412963,La Guadalupana,902 S Hampton Rd,Dallas,TX,75208,7823,DALLAS,Grocery Store,32.736969,-96.856308,248288
1626627,Bag's African And Caribbean Food Market Llc,4636 Maple Ave,Dallas,TX,75219,1001,DALLAS,Grocery Store,32.813751,-96.824776,248869
1675890,Tom Thumb 4788,3400 N Belt Line Rd,Sunnyvale,TX,75182,9230,DALLAS,Supermarket,32.811893,-96.595596,249724
1669391,Zayn Global Market,920 S Belt Line Rd,Coppell,TX,75019,4884,DALLAS,Grocery Store,32.946972,-96.992386,251504
1673556,Mango Tropical,3112 N Jupiter Rd,Garland,TX,75044,6552,DALLAS,Other,32.946728,-96.681152,251844
1678146,La Michoacana Supermarket #37,2806 N Highway 175,Seagoville,TX,75159,2415,DALLAS,Supermarket,32.668243,-96.583015,252341
1676196,Safari Tropical Market,2021 N Hampton Rd,Desoto,TX,75115,8626,DALLAS,Grocery Store,32.630619,-96.858284,253136
1695578,Coppell Farmers Market,768 Main St,Coppell,TX,75019,4743,DALLAS,Farmers and Markets,32.952606,-97.006645,254273
1687754,Mi Pueblito Meat Market Llc Dal #2 5,2376 Lavon Dr,Garland,TX,75040,9001,DALLAS,Grocery Store,32.93589,-96.622963,254274
1694613,BJ's Wholesale Club 264,1021 Ikea Way,Grand Prairie,TX,75052,0043,DALLAS,Super Store,32.6903,-97.0205,254464
785396,La Michoacana Meat Market 25,9850 Walnut Hill Ln,Dallas,TX,75238,    ,DALLAS,Grocery Store,32.877354,-96.716293,254625
