Record_ID,Store_Name,Store_Street_Address,City,State,Zip_Code,County,Store_Type,Latitude,Longitude,ObjectId
1698915,Joe V's Smart Shop 792,4107 Fry RD.,Katy,TX,77449,HARRIS,Supermarket,29.832573,-95.722534,147
1690345,Siempre Grocery 019,9922 S Gessner Rd,Houston,TX,77071,HARRIS,Grocery Store,29.670755,-95.528809,595
1697895,HEB Food Store 759,19529 Northpark Dr,Kingwood,TX,77339,HARRIS,Supermarket,30.068659,-95.251701,596
1447446,Cypress Grocery And Halal Meat,11700 Barker Cypress Rd,Houston,TX,77433,HARRIS,Grocery Store,29.945112,-95.676521,896
1408288,Kohinoor Indo/pak Grocery Halal Meat & Cafe,20423 Kuykendahl Rd,Spring,TX,77379,HARRIS,Grocery Store,30.067778,-95.507751,1528
1631464,La Monarca Meat Market #2,1050 W Rankin Rd,Houston,TX,77067,HARRIS,Grocery Store,29.966463,-95.435699,1669
1620891,Premier Meat Market,15315 Fm 529 Rd,Houston,TX,77095,HARRIS,Grocery Store,29.87912,-95.638855,1949
1634452,Dara African Grocery,19125 W Little York Rd,Katy,TX,77449,HARRIS,Grocery Store,29.864161,-95.702103,2265
1634664,Simply Halal,6806 Bintliff Dr,Houston,TX,77074,HARRIS,Grocery Store,29.706606,-95.505417,2370
251659,Lewis Food Town 216,6470 W Little York Rd,Houston,TX,77091,HARRIS,Supermarket,29.865873,-95.485535,3251
254079,Fiesta Mart 24,11240 Fondren Rd,Houston,TX,77096,HARRIS,Super Store,29.656834,-95.509903,3407
254648,Jerusalem Halal Meats,3330 Hillcroft St,Houston,TX,77057,HARRIS,Super Store,29.72851,-95.501305,3752
252857,HEB 577,10251 Kempwood Dr,Houston,TX,77043,HARRIS,Supermarket,29.822653,-95.546303,3900
268177,Brookshire Brothers 9,5249 Franz Rd,Katy,TX,77493,HARRIS,Super Store,29.801542,-95.809891,4390
268501,Walmart SUPERCENTER  772,3506 Highway 6 S,Houston,TX,77082,HARRIS,Super Store,29.720642,-95.644768,4417
266653,Cox's Foodarama Inc. #22,7320 Antoine Dr,Houston,TX,77088,HARRIS,Super Store,29.867895,-95.472832,4621
271346,Fiesta Mart 9,10401 Jensen Dr,Houston,TX,77093,HARRIS,Super Store,29.864391,-95.333588,4652
286138,HONG KONG FOOD MARKET 4,11205 Bellaire Blvd,HOUSTON,TX,77072,HARRIS,Super Store,29.703684,-95.579338,5378
227876,KROGER CO  352,18030 Fm 529 Rd,Cypress,TX,77433,HARRIS,Super Store,29.881443,-95.68557,5680
226635,La Michoacana Meat Market 27,3910 Aldine Mail Rd,Houston,TX,77039,HARRIS,Super Store,29.902412,-95.340096,5825
226938,KROGER 366,12434 State Highway 249,Houston,TX,77086,HARRIS,Super Store,29.912296,-95.477859,5848
263811,WATKINS CENTER,10510 Cullen Blvd,Houston,TX,77047,HARRIS,Super Store,29.645489,-95.356171,6145
1600727,Southwest Farmers Market,920 S Mason Rd,Katy,TX,77450,HARRIS,Grocery Store,29.767288,-95.752594,6319
276306,La Michoacana Meat Market 28,12385 Bissonnet St,Houston,TX,77099,HARRIS,Supermarket,29.675898,-95.598312,6671
275208,Fiesta Mart 28,11006 Airline Dr,Houston,TX,77037,HARRIS,Super Store,29.916031,-95.40522,6702
276503,Walmart  SUPERCENTER 1137,13750 East Fwy,Houston,TX,77015,HARRIS,Super Store,29.768044,-95.177063,6784
277111,Fiesta Mart 3,800 S Wayside Dr,Houston,TX,77023,HARRIS,Super Store,29.730232,-95.308998,6819
277155,La Michoacana Meat Market 4,2030 Wirt Rd,Houston,TX,77055,HARRIS,Supermarket,29.80871,-95.484863,6824
277936,Fiesta Mart 7,6200 Bellaire Blvd,Houston,TX,77081,HARRIS,Super Store,29.705578,-95.491905,6993
278022,KROGER  367,3820 Atascocita Rd,Humble,TX,77396,HARRIS,Super Store,29.980194,-95.215897,7000
233035,RANDALLS  1011,14610 Memorial Dr,Houston,TX,77079,HARRIS,Supermarket,29.772018,-95.606987,7003
310442,KROGER 737,12400 Fm 1960 Rd W,Houston,TX,77065,HARRIS,Super Store,29.922436,-95.603592,7144
307854,Fiesta Mart 20,8320 Fm 1960 Rd W,Houston,TX,77070,HARRIS,Super Store,29.961584,-95.545937,7269
311200,Fiesta Mart 49,4114 Fulton St,Houston,TX,77009,HARRIS,Super Store,29.797327,-95.367874,7301
278987,Walmart SUPERCENTER 5116,9025 Spencer Hwy,La Porte,TX,77571,HARRIS,Super Store,29.664116,-95.099785,7386
249404,KROGER 740,7747 Kirby Dr,Houston,TX,77030,HARRIS,Super Store,29.695173,-95.415314,7403
279603,Walmart 3500,5655 E SAM HOUSTON PKWY N,HOUSTON,TX,77015,HARRIS,Super Store,29.805998,-95.165123,7641
281200,La Michoacana Meat Market 10,6036 S Gessner Dr,Houston,TX,77036,HARRIS,Super Store,29.714411,-95.540306,7818
249291,Walmart SUPERCENTER 1062,150 W El Dorado Blvd,Friendswood,TX,77546,HARRIS,Super Store,29.551973,-95.159126,7964
291917,KROGER  346,1505 Wirt Rd,Houston,TX,77055,HARRIS,Super Store,29.796362,-95.484978,8166
294071,CARNIC. Y FRUT. CASE DEL PUEBLO,15 W Main St,Humble,TX,77338,HARRIS,Grocery Store,29.998058,-95.266991,8315
273386,KROGER  342,1905 El Mar Ln,Seabrook,TX,77586,HARRIS,Super Store,29.569984,-95.025688,8358
314880,Fiesta Mart 50,5815 Lockwood Dr,Houston,TX,77026,HARRIS,Super Store,29.812511,-95.317879,8383
272858,Walmart Supercenter 5091,26270 Northwest Fwy,Cypress,TX,77429,HARRIS,Super Store,29.974117,-95.699425,8941
289684,GUANAJUATO SUPERMARKET,5429 Mount Houston Rd,Houston,TX,77093,HARRIS,Supermarket,29.891098,-95.310272,9094
298493,RANDALLS 1066,12850 Memorial Dr,Houston,TX,77024,HARRIS,Supermarket,29.774508,-95.560211,9442
332483,KROGER 738,8745 Spring Cypress Rd,Spring,TX,77379,HARRIS,Super Store,30.032709,-95.552773,9468
356467,Walmart 1103,3450 FM 1960 RD W,HOUSTON,TX,77068,HARRIS,Super Store,29.998158,-95.484215,9503
297814,KROGER  395,360 Fm 1960 Rd W,Houston,TX,77090,HARRIS,Super Store,30.019602,-95.435081,9732
331389,HEB Food Store 737,2300 N Shepherd Dr,Houston,TX,77008,HARRIS,Supermarket,29.807312,-95.410194,9800
334779,Lewis Food Town 5,3316 S Shaver St,Houston,TX,77587,HARRIS,Supermarket,29.658659,-95.208229,9824
335312,KROGER  318,19300 W Lake Houston Pkwy,Humble,TX,77346,HARRIS,Super Store,30.001064,-95.160912,9995
387470,KROGER  355,1938 W Gray St,Houston,TX,77019,HARRIS,Super Store,29.753799,-95.405525,10037
347438,Walmart SUPERCENTER 1837,9451 Fm 1960 Bypass Rd W,Humble,TX,77338,HARRIS,Super Store,30.008959,-95.283401,10048
347651,KROGER 385,16400 El Camino Real,Houston,TX,77062,HARRIS,Super Store,29.558554,-95.124672,10427
347761,HEB 576,7310 Louetta Rd,Spring,TX,77379,HARRIS,Supermarket,30.020164,-95.525452,10539
340628,KROGER 307,15802 Champion Forest Dr,Spring,TX,77379,HARRIS,Super Store,30.002243,-95.533234,11159
341258,Walmart 744,6626 FM 1960 RD E,HUMBLE,TX,77346,HARRIS,Super Store,29.995665,-95.176369,11203
341319,Fiesta Mart 5,5600 Mykawa Rd,Houston,TX,77033,HARRIS,Super Store,29.693972,-95.326683,11208
354934,KROGER 746,11701 S Sam Houston Pkwy E,Houston,TX,77089,HARRIS,Super Store,29.603247,-95.214783,11313
282796,Fiesta Mart 43,8650 S Braeswood Blvd,Houston,TX,77031,HARRIS,Super Store,29.671438,-95.529251,11495
353177,Kroger 371,12222 Jones Rd,Houston,TX,77070,HARRIS,Super Store,29.951744,-95.583,11588
352563,KROGER  974,1700 N Alexander Dr,Baytown,TX,77520,HARRIS,Super Store,29.740883,-94.95295,11756
339794,KROGER  309,1801 S Voss Rd,Houston,TX,77057,HARRIS,Super Store,29.74847,-95.500961,11794
241253,Walmart SUPERCENTER 5045,22605 State Highway 249,Tomball,TX,77375,HARRIS,Super Store,30.014164,-95.5951,12384
316127,La Michoacana Meat Market 06,1413 Gessner Dr,Houston,TX,77080,HARRIS,Supermarket,29.795561,-95.545181,12668
302241,HEB 497,1621 S Mason Rd,Katy,TX,77450,HARRIS,Supermarket,29.756968,-95.75045,13129
398204,THANG HUNG FOOD MARKET,3020 Gears Rd,Houston,TX,77067,HARRIS,Super Store,29.946941,-95.465752,13241
337300,Supermercado Teloloapan 7,5330 Chimney Rock Rd,Houston,TX,77081,HARRIS,Grocery Store,29.723637,-95.476624,13274
323228,HEB 492,1550 Fry Rd,Houston,TX,77084,HARRIS,Supermarket,29.789127,-95.716805,13403
336082,COX'S FOODARAMA INC,4425 W Fuqua St,Houston,TX,77045,HARRIS,Super Store,29.612246,-95.445129,13509
336932,RANDALLS  4033,5586 Weslayan St,Houston,TX,77005,HARRIS,Supermarket,29.72168,-95.442123,13654
455291,Fiesta Mart 51,9420 Cullen Blvd,Houston,TX,77051,HARRIS,Super Store,29.655214,-95.356674,14344
499643,Walmart SUPERCENTER  768,1313 N Fry Rd,Katy,TX,77449,HARRIS,Super Store,29.813482,-95.720642,14348
325853,MI TIENDA 066,1630 Spencer Hwy,South Houston,TX,77587,HARRIS,Supermarket,29.66473,-95.209206,14594
326281,Walmart Supercenter 5287,21150 Kuykendahl Rd,Spring,TX,77379,HARRIS,Super Store,30.075663,-95.51503,14654
455929,Lewis Food Town 208,3322 Center St,Deer Park,TX,77536,HARRIS,Supermarket,29.681721,-95.123466,14835
360032,KROGER 748,10010 Cypresswood Dr,Houston,TX,77070,HARRIS,Super Store,29.981943,-95.56588,15973
360081,Lewis Food Town 11,5367 Antoine Dr,Houston,TX,77091,HARRIS,Supermarket,29.842367,-95.474419,15993
417981,RANDALLS 1061,3131 W Holcombe Blvd,Houston,TX,77025,HARRIS,Supermarket,29.704868,-95.425949,16021
374378,HEB 540,3111 Woodridge Dr,Houston,TX,77087,HARRIS,Supermarket,29.696041,-95.297806,16509
442872,Casa Del Pueblo Meat Market 3,13572 State Highway 249 # B,Houston,TX,77086,HARRIS,Other,29.918495,-95.491592,16750
405019,Lewis Food Town 201,5 Uvalde Rd,Houston,TX,77015,HARRIS,Supermarket,29.805435,-95.181107,17183
403942,MERCADO LA MEXICANA,4910 Aldine Mail Rd,Houston,TX,77039,HARRIS,Grocery Store,29.902813,-95.318474,17333
501321,KROGER  312,1035 N Shepherd Dr,Houston,TX,77008,HARRIS,Super Store,29.789328,-95.41098,17438
378261,La Michoacana Meat Market 02,7649 Clarewood Dr,Houston,TX,77036,HARRIS,Super Store,29.709173,-95.519676,17708
327279,LA MEXICANA FRUIT & MEAT MKT #3,5911 Rampart St,Houston,TX,77081,HARRIS,Grocery Store,29.71694,-95.488548,17905
519359,Lewis Food Town 8,3002 W Baker Rd,Baytown,TX,77521,HARRIS,Supermarket,29.771128,-94.996231,18184
1600680,Las Fuentes Meat Market & Bakery,20153 Fm 2920 Rd,Tomball,TX,77377,HARRIS,Grocery Store,30.07933,-95.738586,18664
503684,Supermercado Teloloapan 5,202 Uvalde Rd,Houston,TX,77015,HARRIS,Grocery Store,29.797895,-95.183273,18854
543382,KROGER  609,239 W 20th St,Houston,TX,77008,HARRIS,Super Store,29.804369,-95.400482,19176
539229,LA MORELIANA 1,10301 Club Creek Dr,Houston,TX,77036,HARRIS,Supermarket,29.688013,-95.552971,19322
477115,Lewis Food Town 204,15875 Fm 529 Rd,Houston,TX,77095,HARRIS,Supermarket,29.879112,-95.648613,19388
344669,BIG CITY FOODS,11330 Homestead Rd,Houston,TX,77016,HARRIS,Supermarket,29.884197,-95.299454,19498
477540,GUERRERO MEAT MARKET,8419 Winkler Dr,Houston,TX,77017,HARRIS,Grocery Store,29.675703,-95.265259,19697
477609,TARGET STORE T 1458,19511 Interstate 45,Spring,TX,77388,HARRIS,Super Store,30.050713,-95.431885,19744
482627,Lewis Food Town 209,302 N Main St,Highlands,TX,77562,HARRIS,Supermarket,29.819008,-95.057373,19905
432498,Walmart Supercenter 1409,10750 Westview Dr,Houston,TX,77043,HARRIS,Super Store,29.793192,-95.564926,20755
432811,KROGER 337,2619 RED BLUFF,PASADENA,TX,77506,HARRIS,Super Store,29.695387,-95.174171,20925
430371,Fiesta Mart 12,5800 Lyons Ave,Houston,TX,77020,HARRIS,Super Store,29.77562,-95.311829,20949
628472,KROGER  223,4000 Polk St,Houston,TX,77023,HARRIS,Super Store,29.739838,-95.340416,21216
628965,Supermercado Teloloapan 2,9480 Long Point Rd,Houston,TX,77055,HARRIS,Grocery Store,29.79755,-95.525261,21257
401521,Walmart 3542,11242 S Gessner Rd,Houston,TX,77071,HARRIS,Super Store,29.656115,-95.529633,21604
546194,KROGER  358,5671 Treaschwig Rd,Spring,TX,77373,HARRIS,Super Store,30.044775,-95.347443,21875
407448,Lewis Food Town 217,1420 Fm 1960 Rd W,Houston,TX,77090,HARRIS,Supermarket,30.013552,-95.451942,22002
459268,Lewis Food Town 207,10902 Scarsdale Blvd,Houston,TX,77089,HARRIS,Supermarket,29.585258,-95.212799,22420
410047,Walmart 3296,2700 S KIRKWOOD RD,HOUSTON,TX,77077,HARRIS,Super Store,29.733112,-95.591393,22642
410075,HEB 473,6210 Fairmont Pkwy,Pasadena,TX,77505,HARRIS,Supermarket,29.649673,-95.145653,22656
506326,La Michoacana Meat Market 15,3040 Little York Rd,Houston,TX,77093,HARRIS,Grocery Store,29.870434,-95.336235,22792
566179,KROGER 351,14710 Woodforest Blvd,Houston,TX,77015,HARRIS,Super Store,29.790493,-95.159943,22893
407430,HEB 553,4955 Highway 6 N,Houston,TX,77084,HARRIS,Supermarket,29.847771,-95.645828,22997
566541,KROGER  362,17455 Spring Cypress Rd,Cypress,TX,77429,HARRIS,Super Store,29.972254,-95.691513,23138
394647,HEB Central Market 491,3815 Westheimer Rd,Houston,TX,77027,HARRIS,Supermarket,29.741734,-95.442184,23345
305379,Lewis Food Town 15,2770 N Sam Houston Pkwy W,Houston,TX,77038,HARRIS,Supermarket,29.940426,-95.461304,23519
598706,KROGER  331,12620 Woodforest Blvd,Houston,TX,77015,HARRIS,Super Store,29.789623,-95.200203,24212
522748,KROGER 322,6767 Spencer Hwy,Pasadena,TX,77505,HARRIS,Super Store,29.663532,-95.134933,24631
365720,Lewis Food Town 206,1455 Wilcrest Dr,Houston,TX,77042,HARRIS,Supermarket,29.748671,-95.57196,24810
450556,Whole Foods Market 10115,2955 Kirby Dr,Houston,TX,77098,HARRIS,Super Store,29.738722,-95.418678,25201
450843,Walmart Supercenter 849,155 Louetta Xing,Spring,TX,77373,HARRIS,Super Store,30.063526,-95.430763,25266
631565,PANCHO'S MEAT MARKET #3,7001 Long Dr,Houston,TX,77087,HARRIS,Other,29.685268,-95.305435,25276
446328,HEB 541,10100 Beechnut St,Houston,TX,77072,HARRIS,Supermarket,29.689768,-95.559097,25519
368734,Lewis Food Town 10,901 Richey St,Pasadena,TX,77506,HARRIS,Supermarket,29.69799,-95.219711,25924
420158,TARGET STORE T 1336,8500 S Main St,Houston,TX,77025,HARRIS,Super Store,29.69071,-95.417442,26102
600808,Lewis Food Town 3,12182 Veterans Memorial Dr,Houston,TX,77067,HARRIS,Supermarket,29.962498,-95.477798,26141
716684,KROGER  364,6060 Fm 2920 Rd,Spring,TX,77379,HARRIS,Super Store,30.074068,-95.517014,26331
602062,LA PREFERIDA,5727 Rampart St,Houston,TX,77081,HARRIS,Grocery Store,29.718512,-95.488953,26358
420340,KROGER  300,1950 El Dorado Blvd,Houston,TX,77062,HARRIS,Super Store,29.578321,-95.121391,26393
717162,HEB 551,11815 WESTHEIMER,HOUSTON,TX,77077,HARRIS,Supermarket,29.736378,-95.588371,26396
599149,Middleton's Super Market,2014 Clinton Dr,Galena Park,TX,77547,HARRIS,Grocery Store,29.732498,-95.242409,26465
685439,KROGER  161,14344 Memorial Dr,Houston,TX,77079,HARRIS,Super Store,29.770239,-95.598648,26582
602794,Walmart SUPERCENTER 703,27650 State Highway 249,Tomball,TX,77375,HARRIS,Super Store,30.074289,-95.626587,26684
683972,KROGER  314,5150 Buffalo Speedway,Houston,TX,77005,HARRIS,Super Store,29.727598,-95.42791,26943
684606,HONG KONG FOOD MARKET 2,10909 Scarsdale Blvd,Houston,TX,77089,HARRIS,Super Store,29.586445,-95.213234,26994
508830,KROGER 319,1300 W Fairmont Pkwy,La Porte,TX,77571,HARRIS,Super Store,29.652285,-95.033142,27351
484764,KROGER 744,3135 E Fm 528 Rd,Friendswood,TX,77546,HARRIS,Super Store,29.522453,-95.160324,27442
484768,HEB 574,28520 Tomball Pkwy,Tomball,TX,77375,HARRIS,Supermarket,30.088085,-95.632019,27448
434185,La Michoacana Meat Market 01,7501 Bissonnet St,Houston,TX,77074,HARRIS,Grocery Store,29.684074,-95.51339,27463
509582,Target T 1837,1801 W Bay Area Blvd,Webster,TX,77598,HARRIS,Super Store,29.536057,-95.151146,28181
509627,Fiesta Mart 11,4711 Airline Dr,Houston,TX,77022,HARRIS,Super Store,29.836763,-95.385185,28227
722352,Walmart SUPERCENTER 3297,12353 FM 1960 W,Houston,TX,77065,HARRIS,Super Store,29.922318,-95.603699,28277
722686,Walmart Supercenter 522,14215 Fm 2100 Rd,Crosby,TX,77532,HARRIS,Super Store,29.895372,-95.066223,28306
723015,LYONS SUPERMARKET,3317 Lyons Ave,Houston,TX,77020,HARRIS,Supermarket,29.775948,-95.336311,28457
723348,KROGER 347,9303 Highway 6 S,Houston,TX,77083,HARRIS,Super Store,29.678268,-95.641052,28704
721339,Fiesta Mart 1,1100 Quitman St,Houston,TX,77009,HARRIS,Super Store,29.782276,-95.359612,28808
717757,KROGER 735,12555 Briar Forest Dr,Houston,TX,77077,HARRIS,Super Store,29.753815,-95.605202,28815
689415,KROGER 354,3550 Spencer Hwy,Pasadena,TX,77504,HARRIS,Super Store,29.663239,-95.189598,29326
493948,KROGER 327,13135 Louetta Rd,Cypress,TX,77429,HARRIS,Super Store,29.994715,-95.623283,29916
837278,ALIEF AFRICAN FOOD MEAT & FISH MARKET,9755 S Kirkwood Rd,Houston,TX,77099,HARRIS,Other,29.673407,-95.587181,30044
463768,Fiesta Mart 37,7510 Bellfort St,Houston,TX,77061,HARRIS,Super Store,29.672207,-95.288353,30177
462719,BI-RITE SUPERMARKET,1115 Freeport St,Houston,TX,77015,HARRIS,Grocery Store,29.774397,-95.177444,30278
838667,Grocery Services Inc 18,12660 Beechnut St,Houston,TX,77072,HARRIS,Supermarket,29.689688,-95.602959,30360
838672,Grocery Services Inc 8,8502 Jensen Dr,Houston,TX,77093,HARRIS,Grocery Store,29.837172,-95.342728,30362
460153,Lewis Food Town 7,442 W Little York Rd,Houston,TX,77076,HARRIS,Supermarket,29.871159,-95.406151,30577
460299,RANDALLS  2671,525 S Fry Rd,Katy,TX,77450,HARRIS,Supermarket,29.779381,-95.71701,30716
838391,LA MICHOACANA MEAT MARKET 50,9335 Howard Dr,Houston,TX,77017,HARRIS,Supermarket,29.683506,-95.240555,30979
514561,HEB 498,7405 Fm 1960 Rd E,Humble,TX,77346,HARRIS,Supermarket,29.998308,-95.16375,31269
603750,Fiesta Mart 23,9419 Mesa Dr,Houston,TX,77028,HARRIS,Super Store,29.849339,-95.262482,31401
555041,Target T1396,5757 Fairmont Pkwy,Pasadena,TX,77505,HARRIS,Super Store,29.650019,-95.153053,31861
568680,KROGER 356,1352 W 43rd St,Houston,TX,77018,HARRIS,Super Store,29.828268,-95.432892,31998
468146,TARGET STORE T 1457,20777 Highway 59 N,Humble,TX,77338,HARRIS,Super Store,30.019249,-95.268845,32057
472744,RANDALLS 1012,5219 Fm 1960 Rd W,Houston,TX,77069,HARRIS,Supermarket,29.97963,-95.50885,32165
559105,KROGER 363,9919 Westheimer Rd,Houston,TX,77042,HARRIS,Super Store,29.736456,-95.544678,32251
491034,Lewis Food Town 1,2040 Richey St,Pasadena,TX,77502,HARRIS,Supermarket,29.681822,-95.226624,32277
572676,HEB 575,14498 Bellaire Blvd,Houston,TX,77083,HARRIS,Supermarket,29.705759,-95.641632,32969
572886,PANCHO'S MEAT MARKET,6141 Griggs Rd,Houston,TX,77023,HARRIS,Other,29.702604,-95.31572,33007
497070,KROGER  311,9330 Jones Rd,Houston,TX,77065,HARRIS,Super Store,29.908522,-95.584511,33112
495969,Fiesta Mart 4,1603 Spencer Hwy,South Houston,TX,77587,HARRIS,Super Store,29.664743,-95.211365,33151
496214,Amigo Supermarket & Washateria,6362 Windswept Ln,Houston,TX,77057,HARRIS,Grocery Store,29.725828,-95.49659,33176
499330,KROGER  378,6055 N Fry Rd,Katy,TX,77449,HARRIS,Super Store,29.861092,-95.720421,33994
800012,La Azteca De Oro Meat Market 1,1021 N Main St,Baytown,TX,77520,HARRIS,Grocery Store,29.739594,-94.964561,34334
465446,SING-ON SUPERMARKET,3905 Cavalcade St,Houston,TX,77026,HARRIS,Supermarket,29.800287,-95.331802,34949
610887,KROGER 739,9125 W Sam Houston Pkwy N,Houston,TX,77064,HARRIS,Super Store,29.9034,-95.553345,35314
608740,MEXICO PRO. FMRS. MKT./LAPLACITA,6219 Bellaire Blvd,Houston,TX,77081,HARRIS,Grocery Store,29.705362,-95.490509,35664
575218,Walmart NEIGHBORHOOD MKT  5094,9700 Hillcroft St,Houston,TX,77096,HARRIS,Super Store,29.674444,-95.495247,36520
562866,Cox's Foodarama ,10810 S Post Oak Rd,Houston,TX,77035,HARRIS,Super Store,29.662281,-95.464813,36527
612338,R & T FOOD MART,4005 Hollister St,Houston,TX,77080,HARRIS,Grocery Store,29.82972,-95.5093,36677
575842,Lewis Food Town 203,13811 Cypress North Houston Rd,Cypress,TX,77429,HARRIS,Supermarket,29.947384,-95.629723,36829
611596,Walmart SUPERCENTER  1040,15955 Fm 529 Rd,Houston,TX,77095,HARRIS,Super Store,29.879072,-95.652084,36833
612888,La Michoacana Meat Market 12,4717 Telephone Rd,Houston,TX,77087,HARRIS,Grocery Store,29.692339,-95.298851,36965
800874,TARGET STORE T 2144,12701 Fm 1960 Rd W,Houston,TX,77065,HARRIS,Super Store,29.921335,-95.605827,37080
620607,RANDALLS  1773,2225 Louisiana St,Houston,TX,77002,HARRIS,Supermarket,29.748976,-95.374557,37190
576556,Lewis Food Town 214,435 Sheldon Rd,Channelview,TX,77530,HARRIS,Supermarket,29.779118,-95.126007,37441
577172,KROGER  156,6322 Telephone Rd,Houston,TX,77087,HARRIS,Super Store,29.674957,-95.290993,37500
549751,KROGER  349,1520 Eldridge Pkwy,Houston,TX,77077,HARRIS,Super Store,29.75754,-95.627426,37574
551675,LA PLACITA,9006 Beechnut St,Houston,TX,77036,HARRIS,Grocery Store,29.691051,-95.542374,37935
536031,La Michoacana Meat Market 24,10206 Telephone Rd,Houston,TX,77075,HARRIS,Supermarket,29.61808,-95.285362,38159
802014,EL RANCHITO MEAT MARKET,13626 Veterans Memorial Dr,Houston,TX,77014,HARRIS,Grocery Store,29.983599,-95.495178,38980
1645853,Walmart 6930,8927 Fry Rd,Cypress,TX,77433,HARRIS,Super Store,29.911505,-95.726494,39441
538802,RANDALLS  2672,18322 Clay Rd,Houston,TX,77084,HARRIS,Supermarket,29.831188,-95.683708,39805
704581,La Michoacana Meat Market 08,620 Wayside Dr,Houston,TX,77011,HARRIS,Grocery Store,29.740528,-95.304749,40040
704602,Lewis Food Town 14,3517 N Main St,Baytown,TX,77521,HARRIS,Supermarket,29.76049,-94.96405,40041
1662223,Chi Grocery,14800 Westheimer Rd,Houston,TX,77082,HARRIS,Grocery Store,29.736057,-95.647743,40158
703349,Walmart 3579,2165 NORTHPARK DR,KINGWOOD,TX,77339,HARRIS,Super Store,30.069319,-95.214523,40597
707109,KROGER 310,3410 Northpark Dr,Kingwood,TX,77345,HARRIS,Super Store,30.067932,-95.187233,40605
579581,La Michoacana Meat Market 07,6906 Atwell Dr,Houston,TX,77081,HARRIS,Grocery Store,29.704041,-95.482552,41412
579688,TODO MARKET,1501 Evergreen Dr,Houston,TX,77087,HARRIS,Grocery Store,29.712194,-95.289795,41561
624729,GLORY OF GOD AFR CARR DISC FD/STR,12719 Bissonnet St,Houston,TX,77099,HARRIS,Grocery Store,29.67745,-95.603645,42201
644912,PHOENICIA SPECIALTY FOODS,12141 Westheimer Rd,Houston,TX,77077,HARRIS,Super Store,29.73476,-95.595085,43009
586146,Lewis Food Town 202,7426 Airline Dr,Houston,TX,77076,HARRIS,Supermarket,29.869532,-95.384811,43092
585720,La Michoacana Meat Market 21,11830 Airline Dr,Houston,TX,77037,HARRIS,Other,29.92823,-95.409615,43564
661248,Kroger 190,9475 Fm 1960 Bypass Rd W,Humble,TX,77338,HARRIS,Super Store,30.005009,-95.283455,43735
764457,G & J African Market,12800 Veterans Memorial Dr,Houston,TX,77014,HARRIS,Other,29.97439,-95.487198,43796
641337,Walmart 2066,2727 DUNVALE RD,HOUSTON,TX,77063,HARRIS,Super Store,29.735531,-95.511711,44487
640313,Kroger 150,6315 Garth Rd,Baytown,TX,77521,HARRIS,Super Store,29.792486,-94.980186,44714
766655,Walmart SUPERCENTER 3302,9460 W Sam Houston Pkwy S,Houston,TX,77099,HARRIS,Super Store,29.679268,-95.561188,44721
646803,Fiesta Mart 41,1728 W Mount Houston Rd,Houston,TX,77038,HARRIS,Super Store,29.898027,-95.428413,44854
638819,Fiesta Mart 31,1175 Edgebrook Dr,Houston,TX,77034,HARRIS,Super Store,29.642025,-95.241959,44943
728686,Walmart 3509,11755 BEECHNUT ST,HOUSTON,TX,77072,HARRIS,Super Store,29.687424,-95.586075,45087
724398,WAYNE FOOD MARKET,9210 W Montgomery Rd,Houston,TX,77088,HARRIS,Grocery Store,29.877031,-95.443047,45139
725620,La Michoacana Meat Market 19,502 Shaver St,Pasadena,TX,77506,HARRIS,Grocery Store,29.705009,-95.211594,45254
649065,Matamoros Meat Mkt 12,6515 Chimney Rock Rd,Houston,TX,77081,HARRIS,Supermarket,29.709585,-95.47583,45308
726112,Fiesta Mart 14,14315 Bellaire Blvd,Houston,TX,77083,HARRIS,Super Store,29.703953,-95.638458,45371
726172,La Michoacana Meat Market 23,11210 S Post Oak,HOUSTON,TX,77035,HARRIS,Supermarket,29.656008,-95.464058,45379
726380,Walmart 2718,9555 S Post Oak Rd,Houston,TX,77096,HARRIS,Super Store,29.676228,-95.459106,45396
726395,Fiesta Mart 8,2323 Wirt Rd,Houston,TX,77055,HARRIS,Super Store,29.815269,-95.48716,45397
727010,KROGER  374,8550 Highway 6 N,Houston,TX,77095,HARRIS,Super Store,29.901459,-95.631569,45639
651086,Carnicerias Teloloapan 1,159 Aldine Bender Rd,Houston,TX,77060,HARRIS,Super Store,29.931768,-95.404366,45713
676354,Fiesta Mart 22,12355 Main St,Houston,TX,77035,HARRIS,Super Store,29.648224,-95.461014,45778
727404,Walmart NEIGHBORHOOD MKT 3452,4810 Highway 6 N,Houston,TX,77084,HARRIS,Super Store,29.844299,-95.644875,45855
667657,WHOLE FOODS MARKET 10134,4004 Bellaire Blvd,Houston,TX,77025,HARRIS,Super Store,29.706078,-95.441193,45959
805221,La Sabrosa Meat Market #2 Inc 2,777 Sheldon Rd,Channelview,TX,77530,HARRIS,Supermarket,29.786779,-95.124741,46252
806025,El Ahorro Supermarket 1,10050 Long Point Rd,Houston,TX,77055,HARRIS,Supermarket,29.794992,-95.542168,46388
806625,Supermercado Teloloapan 8,5420 Highway 6 N,Houston,TX,77084,HARRIS,Grocery Store,29.856064,-95.64373,46624
808508,La Michoacana Meat Market 37,14646 Alderson St,Houston,TX,77015,HARRIS,Supermarket,29.788343,-95.161552,47343
768246,HEB 054,9828 Blackhawk Blvd,Houston,TX,77075,HARRIS,Supermarket,29.601673,-95.249397,47626
769357,Lewis Food Town 17,9525 S Kirkwood Rd,Houston,TX,77099,HARRIS,Supermarket,29.676332,-95.587219,47892
769420,Mi Tienda Meat Market,6024 Gulfton St,Houston,TX,77081,HARRIS,Grocery Store,29.716694,-95.48793,47910
708226,Fiesta Mart 18,8130 Kirby Dr,Houston,TX,77054,HARRIS,Super Store,29.690525,-95.415237,48062
781624,Hung Dong Food Market 249 ,13433 State Highway 249,Houston,TX,77086,HARRIS,Other,29.918245,-95.491302,48239
592516,SHEFFIELD INC,7006 Martin Luther King Jr Blvd,Houston,TX,77033,HARRIS,Grocery Store,29.676735,-95.337059,48558
692919,Walmart SUPERCENTER 194,4900 Garth Rd,Baytown,TX,77521,HARRIS,Super Store,29.776648,-94.977661,49355
995926,C.K.C African Foods Store And Groceries,9924 S Gessner Dr,Houston,TX,77071,HARRIS,Other,29.670307,-95.528313,49526
996356,Walmart Supercenter 3640,1118 Silber Rd,Houston,TX,77055,HARRIS,Super Store,29.788498,-95.465591,49723
643530,MATAMOROS MEAT MARKET #3 INC.,4818 Irvington Blvd,Houston,TX,77009,HARRIS,Other,29.804729,-95.360748,49728
993767,Lmmm Houston 54,1424 Spring Cypress Rd,Spring,TX,77373,HARRIS,Supermarket,30.076323,-95.434113,49989
680771,Fiesta Mart 39,8710 Bellaire Blvd,Houston,TX,77036,HARRIS,Super Store,29.70516,-95.538246,50142
824869,LA MICHOACANA MEAT MARKET 45,715 Normandy St,Houston,TX,77015,HARRIS,Supermarket,29.785053,-95.203331,50266
677413,HONG KONG FOOD MARKET 3,13400 Veterans Memorial Dr,Houston,TX,77014,HARRIS,Super Store,29.981552,-95.491722,50495
1578190,Cypress Indian Grocery,8020 Fry Rd,Cypress,TX,77433,HARRIS,Other,29.895754,-95.718376,50592
694691,RANDALLS 2961,9660 Westheimer Rd,Houston,TX,77063,HARRIS,Supermarket,29.738546,-95.537125,50645
682466,Walmart SUPERCENTER  1279,10411 North Fwy,Houston,TX,77037,HARRIS,Super Store,29.917791,-95.415504,50647
680049,Capital Sales Grocery,4663 Telephone Rd,Houston,TX,77087,HARRIS,Grocery Store,29.69449,-95.299324,50755
733689,MEXICO LINDO,2145 Red Bluff Rd,Pasadena,TX,77506,HARRIS,Supermarket,29.700293,-95.182434,50811
695314,KROGER  376,18518 Kuykendahl Rd,Spring,TX,77379,HARRIS,Super Store,30.039396,-95.487823,50965
773723,Walmart SUPERCENTER 3425,9598 Rowlett Rd,Houston,TX,77075,HARRIS,Super Store,29.630878,-95.23436,51132
773167,LA HACIENDA SUPERMARKET 2,9652 Beechnut St,Houston,TX,77036,HARRIS,Grocery Store,29.689957,-95.552536,51251
772581,MEXICO MARKET,1508 Houston Blvd,South Houston,TX,77587,HARRIS,Super Store,29.661678,-95.234314,51616
772929,SCARSDALE GROCERY,12415 Scarsdale Blvd,Houston,TX,77089,HARRIS,Grocery Store,29.593735,-95.204155,51648
777012,TARGET STORE T 2066,6801 Fm 1960 Rd W,Houston,TX,77069,HARRIS,Super Store,29.967726,-95.530594,51692
655456,Walmart Supercenter 2724,1107 Shaver St,Pasadena,TX,77506,HARRIS,Super Store,29.694101,-95.211372,52138
654077,La Michoacana Meat Market 09,7502 Fulton St,Houston,TX,77022,HARRIS,Grocery Store,29.82947,-95.376099,52290
653443,KROGER  313,10306 S Post Oak Rd,Houston,TX,77035,HARRIS,Super Store,29.66959,-95.462494,52361
658192,LA MORELIANA 2,10769 W Bellfort St,Houston,TX,77099,HARRIS,Other,29.654482,-95.570045,52592
655099,RANDALLS 3067,5161 San Felipe St,Houston,TX,77056,HARRIS,Supermarket,29.748827,-95.465874,52664
783284,TARGET STORE T 1894,25901 Highway 290,Cypress,TX,77429,HARRIS,Super Store,29.969208,-95.696236,53377
783285,TARGET STORE T 1904,14302 Fm 2920 Rd,Tomball,TX,77377,HARRIS,Super Store,30.089418,-95.639465,53378
696110,Walmart Supercenter 752,5200 Fairmont Pkwy,Pasadena,TX,77505,HARRIS,Super Store,29.649588,-95.161407,53453
734275,La Michoacana Meat Market 14,12496 Bellaire Blvd,Houston,TX,77072,HARRIS,Supermarket,29.703674,-95.60231,54338
778758,La Michoacana Meat Market 36,14050 State Highway 249,Houston,TX,77086,HARRIS,Supermarket,29.921993,-95.496681,55077
829776,TARGET STORE T 75,10801 Westheimer Rd,Houston,TX,77042,HARRIS,Super Store,29.736683,-95.568123,55237
877076,LA MICHOACANA MEAT MARKET 3,1419 Wilcrest Dr,Houston,TX,77042,HARRIS,Supermarket,29.749411,-95.571297,56404
812747,La Michoacana Meat Market 38,254 1st St E,Humble,TX,77338,HARRIS,Supermarket,29.999594,-95.264313,57276
790070,LA MORELIANA MEAT MARKET 10,7306 W.Tidwell Rd,Houston,TX,77040,HARRIS,Supermarket,29.850771,-95.500702,57413
814272,LA GUERRERO MEAT MARKET,8328 Fairbanks N Houston Rd,Houston,TX,77064,HARRIS,Grocery Store,29.901661,-95.524109,57552
788064,Lewis Food Town 18,9725 Fondren Rd,Houston,TX,77096,HARRIS,Supermarket,29.674942,-95.50853,57825
786719,TARGET STORE T 887,4510 Garth Rd,Baytown,TX,77521,HARRIS,Super Store,29.771801,-94.9776,57834
1649224,Tehran Kabul Supermarket  Inc,1460 Wilcrest Dr,Houston,TX,77042,HARRIS,Grocery Store,29.749317,-95.572678,58443
1005586,Whole Foods Market 10346,701 Waugh Dr,Houston,TX,77019,HARRIS,Super Store,29.758064,-95.397606,58910
738409,KROGER 390,14060 Fm 2920 Rd,Tomball,TX,77377,HARRIS,Super Store,30.089523,-95.634148,59282
1646374,El Ahorrito Meat Market & Taqueria,938 W Main St,Tomball,TX,77375,HARRIS,Grocery Store,30.093538,-95.62487,59324
1008035,La Fiesta Meat Market,730 Greens Rd,Houston,TX,77060,HARRIS,Grocery Store,29.950129,-95.398399,59541
819021,La Michoacana Meat Market 39,11120 North Fwy,Houston,TX,77037,HARRIS,Supermarket,29.927029,-95.411568,61045
831100,La Michoacana Meat Market Houston 40,8443 Airline Dr,Houston,TX,77037,HARRIS,Supermarket,29.883074,-95.391098,61376
831132,LA MICHOACANA MEAT MARKET HOUSTON 47,15707 Westpark Dr,Houston,TX,77082,HARRIS,Grocery Store,29.715725,-95.660866,61403
831135,LA MICHOACANA MEAT MARKET HOUSTON 46,8500 Almeda Genoa Rd,Houston,TX,77075,HARRIS,Supermarket,29.626383,-95.265511,61411
795593,TARGET STORE T 2139,8605 Westheimer Rd,Houston,TX,77063,HARRIS,Super Store,29.737423,-95.517128,61649
794351,TARGET STORE T 2093,2580 Shearn St,Houston,TX,77007,HARRIS,Super Store,29.774256,-95.385574,61723
849979,Super H Mart,1302 Blalock Rd,Houston,TX,77055,HARRIS,Super Store,29.791901,-95.521667,62551
849519,La Montana Meat Market,1107 Preston Ave,Pasadena,TX,77503,HARRIS,Super Store,29.693668,-95.172844,62872
851140,Walmart Supercenter 4538,6060 N Fry Rd,Katy,TX,77449,HARRIS,Super Store,29.861654,-95.720314,63180
1013806,La Frontera Meat Market,13210 Bissonnet St,Houston,TX,77083,HARRIS,Grocery Store,29.681177,-95.614723,63317
1014086,Gulshan-e-iqbal Halal Meat,6121 Hillcroft St,Houston,TX,77081,HARRIS,Grocery Store,29.713753,-95.495491,63353
1014138,Joe V's Smart Shop 646,12009 Northwest Fwy,Houston,TX,77092,HARRIS,Supermarket,29.83149,-95.482475,63360
853518,LA MICHOACANA MEAT MARKET,1348 N Shepherd Dr,Houston,TX,77008,HARRIS,Grocery Store,29.79582,-95.409958,63392
833651,HEB 20,24224 Northwest Fwy,Cypress,TX,77429,HARRIS,Supermarket,29.957476,-95.673241,63928
833655,EL PAISANO MEAT MARKET 2,426 Crosstimbers St,Houston,TX,77022,HARRIS,Grocery Store,29.828444,-95.393959,63934
835276,HEB 099,10919 Louetta Rd,Houston,TX,77070,HARRIS,Supermarket,29.996323,-95.577461,64061
820741,Walmart 4298,9235 N SAM HOUSTON PKWY E,HUMBLE,TX,77396,HARRIS,Super Store,29.93652,-95.252747,64695
673473,KROGER  396,6350 N Eldridge Pkwy,Houston,TX,77041,HARRIS,Super Store,29.864412,-95.608162,64944
917658,99 Ranch Market 101,1005 Blalock Rd,Houston,TX,77055,HARRIS,Super Store,29.785557,-95.521446,65469
673837,Walmart Supercenter 2257,13484 Northwest Fwy,Houston,TX,77040,HARRIS,Super Store,29.852436,-95.510941,65555
750329,EL TAQUITO MEAT MARKET,1020 Fm 1960 Rd W,Houston,TX,77090,HARRIS,Grocery Store,30.016148,-95.446312,65568
750468,FRUITLANDIA 2,7235 Hillcroft St,Houston,TX,77081,HARRIS,Grocery Store,29.700741,-95.492828,65602
1634063,Aryana Halal Market 1,9347 Richmond Ave,Houston,TX,77063,HARRIS,Grocery Store,29.728575,-95.52903,65955
1287299,Pancho's Meat Market 4 4,8564 Long Point Rd,Houston,TX,77055,HARRIS,Other,29.80308,-95.499657,66105
1288489,The Carniceria 1,3814 Center St,Deer Park,TX,77536,HARRIS,Grocery Store,29.67695,-95.123329,67454
856794,Panchos Meat Market 5,102 E Edgebrook Dr,Houston,TX,77034,HARRIS,Grocery Store,29.649185,-95.218513,67715
901194,LA MICHOACANA MEAT MARKET 52,4001 W Fuqua St,Houston,TX,77045,HARRIS,Super Store,29.613291,-95.437279,67752
901199,LA MICHOACANA MEAT MARKET 22,6333 Barker Cypress Rd,Houston,TX,77084,HARRIS,Supermarket,29.866726,-95.684013,67771
747227,LA VERACRUZANA MEAT MARKET,1210 West Rd,Houston,TX,77038,HARRIS,Other,29.914719,-95.441345,69052
836193,Casa Del Pueblo Meat Market #5 5,4409 Treaschwig Rd,Spring,TX,77373,HARRIS,Grocery Store,30.036175,-95.363098,69420
930748,A1-Supermarket,119 Atascocita Rd,Humble,TX,77396,HARRIS,Grocery Store,29.956465,-95.265533,69867
1634789,Guadalupana Meat Market Llc #1,9495 Kempwood Dr,Houston,TX,77080,HARRIS,Grocery Store,29.820887,-95.525719,69933
858060,Target T 2389,6931 Fm 1960 Rd E,Atascocita,TX,77346,HARRIS,Super Store,29.998449,-95.172707,70054
1587579,Southwest Farmers Market,17117 Fm 529 Rd,Houston,TX,77095,HARRIS,Grocery Store,29.87838,-95.667282,73250
923761,Costco Wholesale 0675,12405 N Gessner Rd,Houston,TX,77064,HARRIS,Super Store,29.954773,-95.547768,73664
923763,Costco Wholesale 0680,1150 Bunker Hill Rd,Houston,TX,77055,HARRIS,Super Store,29.788092,-95.531303,73672
758630,LA MICHOACANA MEAT MARKKET 32,3902 S Shaver St,Houston,TX,77034,HARRIS,Supermarket,29.650709,-95.207962,74296
884473,Target Store 2494,8503 S Sam Houston Pkwy E,Houston,TX,77075,HARRIS,Super Store,29.602436,-95.264076,74878
949073,LA MICHOACANA MEAT MARKET 11,1220 Fm 1960 Rd W,Houston,TX,77090,HARRIS,Supermarket,30.015383,-95.448753,75116
937007,PARIVAR GROCERS,6655 HARWIN DR,HOUSTON,TX,77036,HARRIS,Other,29.719704,-95.499413,75802
939796,New Awami Markaz,5812 Highway 6 N,Houston,TX,77084,HARRIS,Grocery Store,29.860561,-95.644089,76235
942865,Supermercado Teloloapan 10,8446 Fondren Rd,Houston,TX,77074,HARRIS,Grocery Store,29.687172,-95.508919,76870
906168,HEB Food Store 599,5225 Buffalo Speedway,Houston,TX,77005,HARRIS,Supermarket,29.726753,-95.427803,76980
945756,BONITO MICHOACAN MEAT MARKET 5,5800 Bellaire Blvd,Houston,TX,77081,HARRIS,Grocery Store,29.706579,-95.483498,79340
1040327,Joe V's Smart Shop 645,3500 Garth Rd,Baytown,TX,77521,HARRIS,Supermarket,29.760092,-94.977341,79955
908478,CHO THANH BINH MARKET,11810 Bellaire Blvd,Houston,TX,77072,HARRIS,Supermarket,29.705099,-95.586624,80089
860609,Target T 1435,984 Gessner Rd,Houston,TX,77024,HARRIS,Super Store,29.782919,-95.541206,80338
908877,Los Paisanos Carniceria & Taqueria,4402 Sherwood Ln,Houston,TX,77092,HARRIS,Grocery Store,29.814129,-95.455269,80478
909807,Grocery Services Inc 23,701 E Main St,Tomball,TX,77375,HARRIS,Grocery Store,30.100597,-95.6063,80611
763376,Target Store 858,13250 Northwest Fwy,Houston,TX,77040,HARRIS,Super Store,29.848286,-95.503586,80664
763380,Target Store 993,6955 Highway 6 N,Houston,TX,77084,HARRIS,Super Store,29.877384,-95.647491,80671
763381,Target Store 1124,21515 Tomball Pkwy,Houston,TX,77070,HARRIS,Super Store,30.000135,-95.582695,80678
1590246,Gordon Restruant Market MP225,156 1st St W,Humble,TX,77338,HARRIS,Supermarket,30.002302,-95.267288,81460
863856,La Preferida,28048 State Highway 249,Tomball,TX,77375,HARRIS,Supermarket,30.081526,-95.62944,82299
863938,LA MICHOACANA MEAT MARKET 48,7071 Lawndale St,Houston,TX,77023,HARRIS,Supermarket,29.718229,-95.295357,82312
863951,LA MICHOACANA MEAT MARKET 41,8501 Gulf Fwy,Houston,TX,77017,HARRIS,Supermarket,29.670212,-95.262299,82313
1297528,Makola Marketplace NO 2,9051 W Bellfort St,Houston,TX,77031,HARRIS,Grocery Store,29.65616,-95.535721,82587
1125487,Las Tarascas,1025 S Mason Rd,Katy,TX,77450,HARRIS,Grocery Store,29.765116,-95.750923,83151
1297940,Kroger 130,2150 Spring Stuebner Rd,Spring,TX,77389,HARRIS,Super Store,30.083002,-95.44986,83251
1093849,Aldi 78002,2302 Fm 2920 Rd,Spring,TX,77388,HARRIS,Supermarket,30.071054,-95.451881,83275
1093850,Aldi 78011,4140 Fairmont Pkwy,Pasadena,TX,77504,HARRIS,Supermarket,29.649633,-95.179741,83276
1093853,Aldi 78001,2009 S Mason Rd,Katy,TX,77450,HARRIS,Supermarket,29.749577,-95.750214,83277
1093854,Aldi 78009,5930 N Fry Rd,Katy,TX,77449,HARRIS,Supermarket,29.857979,-95.718269,83278
1093859,Aldi 78005,13340 Tomball Pkwy,Houston,TX,77086,HARRIS,Supermarket,29.915257,-95.486343,83281
1093861,Aldi 78007,6900 Fm 1960 Rd E,Humble,TX,77346,HARRIS,Supermarket,29.99671,-95.172859,83282
1097383,Sprouts 0130,22506 Tomball Pkwy,Houston,TX,77070,HARRIS,Supermarket,30.010231,-95.588287,83353
889955,ALSAFA Import Inc,873 S Mason Rd,Katy,TX,77450,HARRIS,Grocery Store,29.770538,-95.75061,83497
1679981,La Michoacana Meat Market #94,13760 Northwest Fwy,Houston,TX,77040,HARRIS,Supermarket,29.854769,-95.511833,83864
1096020,Hafiz Brothers Inc,12228 Antoine Dr,Houston,TX,77066,HARRIS,Grocery Store,29.96031,-95.479027,83865
923808,Costco Wholesale 1018,3836 Richmond Ave,Houston,TX,77027,HARRIS,Super Store,29.73415,-95.439484,84066
865195,Sam's Club 8281,13600 East Fwy,Houston,TX,77015,HARRIS,Super Store,29.770094,-95.182335,85107
865040,Sam's Club 8244,11101 Fuqua St,Houston,TX,77089,HARRIS,Super Store,29.615885,-95.219597,85132
865052,Sam's Club 8245,325 E Richey Rd,Houston,TX,77073,HARRIS,Super Store,29.998812,-95.421417,85139
865069,Sam's Club 4712,10488 Katy Fwy,Houston,TX,77043,HARRIS,Super Store,29.785133,-95.556763,85152
865094,Sam's Club 4721,7950 FM 1960,Houston,TX,77070,HARRIS,Super Store,29.962059,-95.54641,85166
865115,Sam's Club 4764,20424 Katy Fwy,Katy,TX,77449,HARRIS,Super Store,29.785688,-95.726273,85181
865123,Sam's Club 4769,5310 S Rice Ave,Houston,TX,77081,HARRIS,Super Store,29.72496,-95.468193,85185
865180,Sam's Club 8274,12205 West Rd,Houston,TX,77065,HARRIS,Super Store,29.902615,-95.596878,85206
865233,Sam's Club 6367,9665 Fm 1960 Bypass Rd W,Humble,TX,77338,HARRIS,Super Store,30.006063,-95.279526,85431
865357,LA MICHOACANA MEAT MARKET 33,10813 Market Street Rd,Houston,TX,77029,HARRIS,Supermarket,29.767668,-95.238106,85674
865358,LA MICHOACANA MEAT MARKET 42,1535 Elton St,Houston,TX,77034,HARRIS,Supermarket,29.649298,-95.248291,85678
865359,LA MICHOACANA SUPERMARKET 44,4711 W 34th St,Houston,TX,77092,HARRIS,Supermarket,29.819532,-95.45993,85682
865360,LA MICHOACANA MEAT MARKET 49,5712 W Little York Rd,Houston,TX,77091,HARRIS,Supermarket,29.863342,-95.474495,85686
1098032,Aldi 78005,5855 Highway 6 N,Houston,TX,77084,HARRIS,Supermarket,29.861635,-95.646507,86146
1098034,Aldi 78017,3715 Fm 1960 Rd W,Houston,TX,77068,HARRIS,Supermarket,29.994341,-95.486519,86147
1100057,Farmer's Fresh Meat 2,8630A Cullen Blvd,Houston,TX,77051,HARRIS,Other,29.667288,-95.355888,87005
1060609,La Michoacana Meat Market 25,11655 Veterans Memorial Dr,Houston,TX,77067,HARRIS,Supermarket,29.951424,-95.471474,88417
1060824,Grocery Services Inc 24,8221 Gulf Fwy,Houston,TX,77017,HARRIS,Grocery Store,29.679302,-95.27092,88495
1060837,Grocery Services Inc 27,221 Fm 1960 Rd W,Houston,TX,77090,HARRIS,Grocery Store,30.020357,-95.431313,88536
1063089,Alameda Meat Market 1,2339 N Fry Rd,Katy,TX,77449,HARRIS,Grocery Store,29.801571,-95.719261,88678
1078139,HEB 656,28550 Highway 290,Cypress,TX,77433,HARRIS,Supermarket,29.9925,-95.744469,89445
1078292,Supermercado El Paisano,9700 Club Creek Dr,Houston,TX,77036,HARRIS,Grocery Store,29.679953,-95.547966,89680
1113638,Dominion African Food Mart,6289 Highway 6 S,Houston,TX,77083,HARRIS,Other,29.710035,-95.642769,89886
868198,HEB 109,9710 Katy Fwy,Houston,TX,77055,HARRIS,Supermarket,29.785143,-95.532082,90082
867755,Target T 2419,2700 Eldridge Pkwy,Houston,TX,77082,HARRIS,Super Store,29.732634,-95.627319,90238
1103568,La Congolaise,3774 S Gessner Rd,Houston,TX,77063,HARRIS,Other,29.723158,-95.54023,91935
1106981,Sprouts Farmers Market 131,7055 State Hwy 6 North,Houston,TX,77095,HARRIS,Supermarket,29.880495,-95.646866,91953
894938,O-LAN-O,6806 W Montgomery Rd,Houston,TX,77091,HARRIS,Grocery Store,29.857952,-95.421478,92224
1056349,El Ranchito Meat Market & Taqueria 2,9822 N Houston Rosslyn Rd,Houston,TX,77088,HARRIS,Grocery Store,29.885059,-95.49437,92713
1108049,Wazobia Market,16203 Westheimer Rd,Houston,TX,77082,HARRIS,Other,29.719717,-95.670708,93843
1443754,Acres Homes Farmers Market NAFMNP,2500 S Victory Dr,Houston,TX,77088,HARRIS,Farmers and Markets,29.871159,-95.447945,94192
898206,Target Store 907,19955 Katy Fwy,Houston,TX,77094,HARRIS,Super Store,29.78393,-95.716888,94863
898216,Target Store 955,4323 San Felipe St,Houston,TX,77027,HARRIS,Super Store,29.746603,-95.453133,94879
898238,Target Store 1975,300 Meyerland Plaza Mall,Houston,TX,77096,HARRIS,Super Store,29.686813,-95.462097,94906
1674057,Enson Market 28 Gessner Inc.,5708 S Gessner Rd,Houston,TX,77036,HARRIS,Grocery Store,29.718752,-95.540344,95088
1063745,Pop Super Market 01,6371 Windswept Ln,Houston,TX,77057,HARRIS,Supermarket,29.725763,-95.497238,95134
1138122,Kroger 117,24350 Kuykendahl Rd,Tomball,TX,77375,HARRIS,Super Store,30.115705,-95.554527,95394
1141009,La Michoacana Meat Market 63,8145 Highway 6 S,Houston,TX,77083,HARRIS,Supermarket,29.690933,-95.643723,95459
1137083,ALDI 78013,9251 Jones Rd,Houston,TX,77065,HARRIS,Supermarket,29.907734,-95.584702,95787
1066872,Lewis Food Town 215,23221 Aldine Westfield,Spring,TX,77373,HARRIS,Supermarket,30.049351,-95.387482,96425
1016747,Teloloapan Meat Market 6,2223 Shaver St,Pasadena,TX,77502,HARRIS,Grocery Store,29.678663,-95.20845,96980
1145869,H Mart Houston II LLC,9896 Bellaire Blvd,Houston,TX,77036,HARRIS,Super Store,29.704754,-95.554993,98949
1235639,Supermercado Teloloapan 12,9979 Beechnut St,Houston,TX,77036,HARRIS,Grocery Store,29.689089,-95.555801,99386
1238264,Townsen Blvd W 1228,21802 Townsen W,Humble,TX,77338,HARRIS,Super Store,30.020683,-95.268181,100244
1238875,Tienda Rio Lempa Pupuseria 3,6 Uvalde Rd,Houston,TX,77015,HARRIS,Grocery Store,29.805252,-95.182472,100390
1082797,Trader Joe's 427,1409 S Voss Rd,Houston,TX,77057,HARRIS,Supermarket,29.751703,-95.500984,101526
1603611,Maki Mart,12989 Bellaire Blvd,Houston,TX,77072,HARRIS,Grocery Store,29.702984,-95.612846,102670
1084201,Joe v's Smart Shop 667,7755 W Bellfort St,Houston,TX,77071,HARRIS,Supermarket,29.655197,-95.513107,102787
1448722,Guerrero Meat Market No. 4 Inc.,8514 C E King Pkwy,Houston,TX,77044,HARRIS,Grocery Store,29.846788,-95.21328,103184
1155060,Whole Foods Market 10497,10133 Louetta Rd,Houston,TX,77070,HARRIS,Super Store,30.000364,-95.561241,104124
1156940,Kroger 115,9703 Barker Cypress Rd,Cypress,TX,77433,HARRIS,Super Store,29.918398,-95.686333,104529
1023548,Rani's World Foods,16711 Hollister St,Houston,TX,77066,HARRIS,Grocery Store,29.972546,-95.52179,105009
1022673,Vishala Grocery,5205 S Mason Rd,Katy,TX,77450,HARRIS,Grocery Store,29.719131,-95.748245,105483
1520961,Triumphant Food Store,1945 N Mason Rd,Katy,TX,77449,HARRIS,Grocery Store,29.800674,-95.752686,106087
1071692,Trader Joe's 426,2922 S Shepherd Dr,Houston,TX,77098,HARRIS,Supermarket,29.739212,-95.41114,106550
1089919,Subhlaxmi Grocers,6606 Southwest Fwy,Houston,TX,77074,HARRIS,Other,29.716965,-95.500061,107079
1521573,Target Store T2882,22165 Fm 529 Rd,Katy,TX,77493,HARRIS,Super Store,29.87516,-95.763992,107435
1623954,Healthy Babies 0001,9789 Beechnut St,Houston,TX,77036,HARRIS,Grocery Store,29.689169,-95.553154,107905
1125296,Walmart Supercenter 5612,2391 S Wayside Dr,Houston,TX,77023,HARRIS,Super Store,29.715858,-95.31501,108286
1074675,Kroger 17,1440 Studemont St,Houston,TX,77007,HARRIS,Super Store,29.773867,-95.389633,108443
1120983,ALDI 78015,3100 Fm 528 Rd,Webster,TX,77598,HARRIS,Supermarket,29.522495,-95.160347,108611
1076865,HEB 657,9503 Jones Rd,Houston,TX,77065,HARRIS,Supermarket,29.911106,-95.58606,108676
1075812,Walmart 5959,111 YALE ST,HOUSTON,TX,77007,HARRIS,Super Store,29.7728,-95.401352,108834
1076983,Lou's Supermercado,3440 Bertrand St,Houston,TX,77093,HARRIS,Grocery Store,29.886843,-95.33197,108884
1076049,God's Glory Enterprise,17130 Beechnut St,Houston,TX,77083,HARRIS,Grocery Store,29.687748,-95.681725,108940
1122928,Supermercado Teloloapan 13,5885 S Gessner Rd,Houston,TX,77036,HARRIS,Grocery Store,29.715796,-95.538864,108991
1188281,Aldi 52,14130 Fm 2100 Rd,Crosby,TX,77532,HARRIS,Supermarket,29.892239,-95.063309,109093
1673424,Trader Joe's Kingwood 433,600 600 Kingwood Dr.  Suite C,Kingwood,TX,77339,HARRIS,Supermarket,30.04969,-95.246201,109599
1210134,HEB Food Store 709,9722 Fry Rd,Cypress,TX,77433,HARRIS,Supermarket,29.925875,-95.728172,109821
1217437,OK Food Market,4625 Laura Koppe Rd,Houston,TX,77016,HARRIS,Grocery Store,29.840509,-95.322113,110022
1217796,HEB Food Store 715,4701 East Blvd,Deer Park,TX,77536,HARRIS,Supermarket,29.705896,-95.102531,110079
1216546,Walmart Neighborhood Market 4468,20903 Highland Knolls Dr,Katy,TX,77450,HARRIS,Super Store,29.759438,-95.732697,110480
1214788,Joe V's Smart Shop 559,6100 W Fuqua St,Houston,TX,77085,HARRIS,Supermarket,29.607889,-95.477287,110782
1190680,Whole Foods Market 10552,1407 S Voss Rd,Houston,TX,77057,HARRIS,Super Store,29.75238,-95.501038,111244
1218562,ALDI 78059 78059,9870 Louetta Rd,Houston,TX,77070,HARRIS,Supermarket,29.996521,-95.603813,111637
1128697,ALDI 78014,8755 Fm 1960 Bypass West Rd,Humble,TX,77338,HARRIS,Supermarket,30.005014,-95.29277,112082
1129943,Ben Thanh Food Market,10998 Fuqua St,Houston,TX,77089,HARRIS,Super Store,29.612024,-95.223145,112113
1223352,Grocery Services Inc 17,5704 Antoine Dr,Houston,TX,77091,HARRIS,Grocery Store,29.848375,-95.47319,112576
1223418,Grocery Services Inc 19,6421 Hillcroft St,Houston,TX,77081,HARRIS,Supermarket,29.713045,-95.494064,112671
1030839,HEB Food Store 630,1701 W Alabama St,Houston,TX,77098,HARRIS,Supermarket,29.738623,-95.402802,113151
1573272,Arlan's Market #2,4614 Nasa Pkwy,Seabrook,TX,77586,HARRIS,Supermarket,29.567547,-95.059433,113207
1158388,Grocery Services Inc 12,3752 Roma St,Houston,TX,77080,HARRIS,Grocery Store,29.827452,-95.502853,113339
1163109,Sprouts Farmers Market 139,20708 Kuykendahl Rd,Spring,TX,77379,HARRIS,Supermarket,30.071236,-95.510361,113447
1158464,Grocery Services Inc 22,16215 Clay Rd,Houston,TX,77084,HARRIS,Grocery Store,29.835926,-95.647903,113506
1158539,Grocery Services Inc 21,11511 Veterans Memorial Dr,Houston,TX,77067,HARRIS,Grocery Store,29.949923,-95.469513,113547
1158540,Grocery Services Inc 32,14901 State Highway 249,Houston,TX,77086,HARRIS,Grocery Store,29.930813,-95.508392,113553
1246976,ALDI 78062 78062,6751 Bissonnet St,Houston,TX,77074,HARRIS,Supermarket,29.690126,-95.502037,113673
1249174,Whole Foods Market 10612,11041 Westheimer Rd,Houston,TX,77042,HARRIS,Super Store,29.736654,-95.570839,114330
973293,Walmart Supercenter 4526,4412 North Fwy,Houston,TX,77022,HARRIS,Super Store,29.829901,-95.377213,114829
1524024,Ararat International Supermarket ,2111 Spring Cypress Rd,Spring,TX,77388,HARRIS,Grocery Store,30.067114,-95.449158,115312
1523169,Mi Tienda Meat Market,11449 Bob White Dr,Houston,TX,77035,HARRIS,Grocery Store,29.639372,-95.500595,115391
1523782,La Campesina Meat Mkt 1,851 Federal Rd,Houston,TX,77015,HARRIS,Grocery Store,29.775896,-95.217789,115635
1194104,Super Rancho,519 Jackson Ave,Pasadena,TX,77506,HARRIS,Grocery Store,29.705759,-95.206688,115766
1271228,Almadina Supermarket,3210 Hillcroft St,Houston,TX,77057,HARRIS,Super Store,29.730881,-95.50135,116239
1228307,Walmart Neighborhood Market 4465,11425 Barker Cypress Rd,Cypress,TX,77433,HARRIS,Super Store,29.941698,-95.679047,116517
1228313,Walmart Neighborhood Market 5353,24809 Aldine Westfield Rd,Spring,TX,77373,HARRIS,Super Store,30.064928,-95.404465,116527
1229551,Kroger 179,20355 Cypresswood Dr,Cypress,TX,77433,HARRIS,Super Store,29.98917,-95.734009,116856
1036263,Walmart 4416,13003 TOMBALL PKWY,HOUSTON,TX,77086,HARRIS,Super Store,29.915922,-95.487656,117485
1034592,Joe V's Smart Shop 649,612 N Victory Dr,Houston,TX,77088,HARRIS,Supermarket,29.871075,-95.414932,117679
1034632,Mi Tienda 648,3800 Little York Rd,Houston,TX,77093,HARRIS,Supermarket,29.870893,-95.331795,117703
1168856,HEB Food Store 698,14100 Spring Cypress Rd,Cypress,TX,77429,HARRIS,Supermarket,30.002781,-95.637314,118097
1167887,Maru Food Store,6065 Bissonnet St,Houston,TX,77081,HARRIS,Other,29.696589,-95.488007,118504
744754,Matamoros Meat Market # 17 Inc 17,103 Little York Rd,Houston,TX,77076,HARRIS,Convenience Store,29.870687,-95.384544,118660
1165570,Carnicerias Teloloapan 4 Inc,6526 W 43rd St,Houston,TX,77092,HARRIS,Grocery Store,29.833168,-95.487625,118685
1520729,Family Discount Food,8805 Homestead Rd,Houston,TX,77016,HARRIS,Grocery Store,29.8412,-95.302567,118689
1165583,Carnicerias Teloloapan 3 Inc,2311 Little York Rd,Houston,TX,77093,HARRIS,Grocery Store,29.871008,-95.350441,118691
1274766,Southwest Farmers Market IV,2223 Highway 6 S,Houston,TX,77077,HARRIS,Grocery Store,29.740877,-95.64415,118829
1250582,ALDI 78060 78060,8650 Barker Cypress Rd,Houston,TX,77095,HARRIS,Supermarket,29.890474,-95.683441,119148
1275104,Urban Harvest Farmers Market At Eastside Street 1,2752 Buffalo Speedway,Houston,TX,77098,HARRIS,Farmers and Markets,29.741388,-95.430168,119336
1275285,Target 2865,6635 N Grand Pkwy W,Spring,TX,77389,HARRIS,Super Store,30.092697,-95.4356,119357
1275846,ALDI 78035,8615 Hufsmith Rd,Tomball,TX,77375,HARRIS,Supermarket,30.131372,-95.556282,119650
1170308,HEB Food Store 686,26500 Kuykendahl Rd,Tomball,TX,77375,HARRIS,Supermarket,30.14373,-95.550529,120013
1172518,Keemat 3,6911 Fm 1960 Rd W,Houston,TX,77069,HARRIS,Grocery Store,29.969257,-95.532097,120308
1171867,Whole Foods Market 10251,1700 Post Oak Rd,Houston,TX,77056,HARRIS,Super Store,29.750231,-95.461418,120992
1660756,Joe V's Smart Shop 813,10241 North Fwy,Houston,TX,77037,HARRIS,Supermarket,29.911947,-95.414627,121131
1279773,Walmart 4512,22850 Morton Ranch Rd,Katy,TX,77449,HARRIS,Super Store,29.81711,-95.769127,121187
977295,Disco Latino Bakery,12104 Veterans Memorial Dr,Houston,TX,77067,HARRIS,Grocery Store,29.961897,-95.478561,121717
1196108,Supermercado Teloloapan 4,8514 Hammerly Blvd,Houston,TX,77055,HARRIS,Grocery Store,29.811062,-95.498993,122235
1313786,Two Brothers Halal Meat Market,1109 Conrad Sauer Dr,Houston,TX,77043,HARRIS,Grocery Store,29.788147,-95.549088,122996
1230945,ALDI 78068 78068,5521 Garth Rd,Baytown,TX,77521,HARRIS,Supermarket,29.783314,-94.978729,123067
1230993,HEB Food Store 713,3501 Clear Lake City Blvd,Houston,TX,77059,HARRIS,Supermarket,29.606773,-95.119492,123073
1317985,HEB Food Store 748,5251 Fm 2920 Rd,Spring,TX,77388,HARRIS,Supermarket,30.074001,-95.501465,123114
1345421,El Ahorro Supermarket 14,6749 Airline Dr,Houston,TX,77076,HARRIS,Super Store,29.86021,-95.384735,123286
1318610,Great Lake African Food Store,7605 Dashwood Dr,Houston,TX,77036,HARRIS,Grocery Store,29.707275,-95.519264,123710
1345618,Joe V's Smart Shop 753,4203 Red Bluff Rd,Pasadena,TX,77503,HARRIS,Supermarket,29.679029,-95.146385,123721
1231978,Morelia's Meat Market,221 E Little York Rd,Houston,TX,77076,HARRIS,Grocery Store,29.870008,-95.396599,123874
1281450,HEB 725,20311 Champion Forest,Spring,TX,77379,HARRIS,Supermarket,30.016027,-95.541481,124202
1281802,Joe V's Smart Shop 731,2929 Fm 1960 Rd,Houston,TX,77073,HARRIS,Supermarket,30.020803,-95.382957,124252
1174899,Aldi 63,6912 FM 2920 RD,SPRING,TX,77379,HARRIS,Supermarket,30.073784,-95.528259,124355
1175491,Aldi 53,3601 Highway 6 S,Houston,TX,77082,HARRIS,Supermarket,29.718431,-95.644157,124788
1179258,Fiesta Mart 82,20331 Fm 529 Rd,Cypress,TX,77433,HARRIS,Super Store,29.879683,-95.720917,124902
1525553,Panaderia Las Delicias,2054 Fm 1960 Rd W,Houston,TX,77090,HARRIS,Grocery Store,30.009485,-95.460281,125213
1203846,Walmart Supercenter 3584,5405 S Rice Ave,Houston,TX,77081,HARRIS,Super Store,29.7236,-95.468109,125563
979190,Joe V's Smart Shop 640,5609 Uvalde Rd,Houston,TX,77049,HARRIS,Supermarket,29.80706,-95.183578,126522
1320684,Dominion African Food Marts Dominion 2,5444 Fry Rd,Katy,TX,77449,HARRIS,Grocery Store,29.849527,-95.718826,127013
1346329,El Rancho 1632,5402 North Fwy,Houston,TX,77076,HARRIS,Super Store,29.846291,-95.392647,127178
1346331,El Rancho 1635,11711 W Bellfort St,Stafford,TX,77477,HARRIS,Super Store,29.657452,-95.584625,127180
1317559,Clarewood Wholefood Market Llc 01,159 Sharpstown Ctr,Houston,TX,77036,HARRIS,Grocery Store,29.709314,-95.516197,127361
1320074,Andalucia Mediterranean Grocery And Pastry,20140 Morton Rd,Katy,TX,77449,HARRIS,Grocery Store,29.814898,-95.722,127616
1181292,Walmart Neighborhood Market 7309,12312 Will Clayton Pkwy,HUMBLE,TX,77346,HARRIS,Super Store,29.978729,-95.189873,128473
1181297,Walmart Neighborhood Market 7357,8208 Barker Cypress Rd,Cypress,TX,77433,HARRIS,Super Store,29.897144,-95.683876,128496
1133130,Shapla Grocers,17118 W Little York Rd,Houston,TX,77084,HARRIS,Grocery Store,29.865479,-95.67012,129402
1526802,Variedades 5 Estrellas,11030 Bissonnet St,Houston,TX,77099,HARRIS,Other,29.674858,-95.573448,129841
1376324,Bellin's International Grocery,4451 Fm 1960 Rd E,Humble,TX,77346,HARRIS,Grocery Store,29.999319,-95.206268,131783
1322478,El Rancho 1631,11210 North Fwy,Houston,TX,77037,HARRIS,Super Store,29.928125,-95.411499,131886
1367113,Taza Food Style,15626 Cypress Rosehill Rd,Cypress,TX,77429,HARRIS,Grocery Store,29.996466,-95.698959,132210
1184044,HEB Food Store 687,5895 San Felipe St,Houston,TX,77057,HARRIS,Supermarket,29.749813,-95.485611,132493
1185667,Keemat 1,5601 Hillcroft St,Houston,TX,77036,HARRIS,Supermarket,29.721781,-95.500954,132559
1673169,La Michoacana Meat Market 26,4466 Highway 6 N,Houston,TX,77084,HARRIS,Grocery Store,29.839239,-95.644783,132655
1185946,Aldi 95,10064 Almeda Genoa Rd,Houston,TX,77075,HARRIS,Supermarket,29.627502,-95.237007,132711
1577731,La Michoacana Meat Market H86,1250 Bay Area Blvd,Houston,TX,77058,HARRIS,Grocery Store,29.559153,-95.116013,132782
1187038,Sprouts Farmers Market 136,195 Yale St,Houston,TX,77007,HARRIS,Supermarket,29.77478,-95.398705,132964
1393056,HEB Food Store 745,4955 Beechnut St,Houston,TX,77096,HARRIS,Supermarket,29.689091,-95.463501,133153
1416648,Betos Meat Market / Grocery Store,26926 Fm 2100 Rd,Huffman,TX,77336,HARRIS,Grocery Store,30.062693,-95.089684,133172
1367390,La Michoacana Meat Market H61 61,2455 Eldridge Pkwy,Houston,TX,77077,HARRIS,Other,29.736467,-95.623657,133396
1527384,Huy Market,13703 Fm 529,Houston,TX,77041,HARRIS,Grocery Store,29.879414,-95.616501,133529
1325165,HEB Food Store 738,5106 Bissonnet St,Bellaire,TX,77401,HARRIS,Supermarket,29.7073,-95.468697,134151
1324703,Al Eman Halal Meat And International Groceries,9001 Louetta Rd,Spring,TX,77379,HARRIS,Grocery Store,30.007475,-95.548248,134157
1323825,Get Moving Houston Farmers Market,6402 Market St,Houston,TX,77020,HARRIS,Farmers and Markets,29.771862,-95.305771,134258
1324268,Onola African Imports,7863 Highway 6 S,Houston,TX,77083,HARRIS,Other,29.693707,-95.643753,134662
1324449,Food Valley ,3418 Broadway St,Houston,TX,77017,HARRIS,Grocery Store,29.691782,-95.277733,134723
1324594,Med Center Fueling Inc,2802 Old Spanish Trl,Houston,TX,77054,HARRIS,Grocery Store,29.698841,-95.386467,134753
1301331,Supermercado Teloloapan 16,3820 N. FRY RD,KATY,TX,77449,HARRIS,Grocery Store,29.828785,-95.719803,136024
1326093,H Mart Katy Llc,23119 Colonial Pkwy,Katy,TX,77449,HARRIS,Super Store,29.793825,-95.775917,136026
1301774,Aldi 78055,1387 Kingwood Dr,Kingwood,TX,77339,HARRIS,Supermarket,30.049694,-95.233688,136238
1326134,Food Max,549 Greens Rd,Houston,TX,77060,HARRIS,Supermarket,29.950716,-95.400955,136393
1302070,Lmmm Houston 65 Ltd. 65,16215 Stuebner Airline Rd,Spring,TX,77379,HARRIS,Grocery Store,30.014618,-95.517906,136583
1302109,Mex African Foods,9817 Bissonnet St,Houston,TX,77036,HARRIS,Grocery Store,29.675087,-95.552177,136584
1302579,Texas Grocers And Halal Meat Market,13221 Old Richmond Rd,Houston,TX,77083,HARRIS,Grocery Store,29.675352,-95.61631,136709
966519,HEB Food Store 614,12680 West Lake Houston Pkwy,Houston,TX,77044,HARRIS,Supermarket,29.924759,-95.196991,137535
1327194,Aa&t African Food Market,3533 S Dairy Ashford Rd,Houston,TX,77082,HARRIS,Grocery Store,29.720198,-95.604706,138804
1370864,Sunrise African Supermarket,12639 Bissonnet St,Houston,TX,77099,HARRIS,Grocery Store,29.67742,-95.600876,138927
1304641,Holyland Meat Market,9801 Bissonnet St,Houston,TX,77036,HARRIS,Other,29.674511,-95.549789,139073
1305638,HEB 742,6430 Garth Rd,Baytown,TX,77521,HARRIS,Supermarket,29.7962,-94.980591,139142
1574747,Asian Avenue.,301 Cedar Bayou Rd,Baytown,TX,77520,HARRIS,Grocery Store,29.747721,-94.961456,139309
1305333,Aldi 78073,161 West Rd,Houston,TX,77037,HARRIS,Supermarket,29.915071,-95.40937,139409
1302941,Lmmm Houston 69 Ltd. 69,4910 N Main St,Baytown,TX,77521,HARRIS,Supermarket,29.777184,-94.964058,139993
1253979,Trader Joe's 431,11683 Westheimer Rd,Houston,TX,77077,HARRIS,Supermarket,29.736477,-95.582863,140057
1253560,Kroger 128,14221 E Sam Houston Pkwy N,Houston,TX,77044,HARRIS,Super Store,29.925755,-95.200836,140175
1252559,99 Ranch Market 106,569 S Mason Rd,Katy,TX,77450,HARRIS,Super Store,29.776203,-95.751648,140414
1397358,El Rancho 1638,118 Fairmont Pkwy,Pasadena,TX,77504,HARRIS,Super Store,29.649546,-95.206573,140565
1397444,Coastal Seafood Market,883 Federal Rd,Houston,TX,77015,HARRIS,Grocery Store,29.775501,-95.217171,140589
1350519,Lmmm Houston 75 Ltd. 75,4623 Fm 2920 Rd,Spring,TX,77388,HARRIS,Supermarket,30.072922,-95.491524,141116
1323154,Aldi 78066,16701 El Camino Real,Houston,TX,77062,HARRIS,Supermarket,29.556049,-95.121284,141237
1360382,Wazobia African Market,10828 Beechnut St,Houston,TX,77072,HARRIS,Super Store,29.688704,-95.569283,141311
1350566,El Ahorro Supermarket 18 Llc. 18,11214 Beechnut St,Houston,TX,77072,HARRIS,Super Store,29.688101,-95.575539,141490
1323288,Freetown International Market,12450 Bissonnet St,Houston,TX,77099,HARRIS,Other,29.67691,-95.598335,141519
1359982,Regios Meat Market 2,9540 Richmond Ave,Houston,TX,77063,HARRIS,Grocery Store,29.729042,-95.534271,141751
1094875,Thang Hung Food Market,9443 Kempwood Dr,Houston,TX,77080,HARRIS,Other,29.8211,-95.524437,142193
1255693,Hwy 3 Halal Grocers,14212 Highway 3,Webster,TX,77598,HARRIS,Grocery Store,29.577185,-95.154999,143154
1398570,Motherland African Food Market & Halal Meat,11328 Beechnut St,Houston,TX,77072,HARRIS,Other,29.688354,-95.578056,144453
1360849,Bonito Michoacan Inc 1,11338 Fondren Rd,Houston,TX,77035,HARRIS,Supermarket,29.655346,-95.508545,144963
1426921,Hi-lo African Caribbean Food Market,9111 Fm 1960 Rd W,Houston,TX,77070,HARRIS,Grocery Store,29.949238,-95.5606,145078
1352147,El Rancho 1636,11303 Veterans Memorial Dr,Houston,TX,77067,HARRIS,Super Store,29.946045,-95.466583,145245
1351790,Acacia Food Mart,11821 Wilcrest Dr,Houston,TX,77031,HARRIS,Grocery Store,29.65056,-95.567261,145376
1374747,El Rancho 1641,6160 Highway 6 N,Houston,TX,77095,HARRIS,Super Store,29.869287,-95.645149,145740
1599289,Palm Center Farmers Market,5400 Beekman Rd,Houston,TX,77021,HARRIS,Farmers and Markets,29.699905,-95.329979,145754
1351243,Ruben Foods,17550 W Little York Rd,Houston,TX,77084,HARRIS,Grocery Store,29.865465,-95.675652,145894
1378927,Mecca Halal Meat & Supermarket,3511 Hillcroft St,Houston,TX,77057,HARRIS,Grocery Store,29.727505,-95.501053,146007
1379038,HEB Food Store 744,3663 Washington Ave,Houston,TX,77007,HARRIS,Supermarket,29.769453,-95.396957,146047
1379810,ALDI 78032,9525 Westheimer Rd,Houston,TX,77063,HARRIS,Supermarket,29.737194,-95.533966,146220
1379812,ALDI 78077,3938 N Shepherd Dr,Houston,TX,77018,HARRIS,Supermarket,29.822588,-95.410469,146222
1379369,La Michoacana Supermarket 20,3700 Barker Cypress Rd,Houston,TX,77084,HARRIS,Supermarket,29.82472,-95.686668,146670
1258810,ALDI 78018 78018,3618 Old Spanish Trl,Houston,TX,77021,HARRIS,Supermarket,29.701977,-95.363556,147656
1258416,La Dispensa,15036 Beechnut St,Houston,TX,77083,HARRIS,Grocery Store,29.689707,-95.651276,147775
1372122,La Esperanza Meat Market 5,11503 Moonglow Dr,Houston,TX,77038,HARRIS,Grocery Store,29.898092,-95.450356,148026
1260749,Kroger 122,2700 W Grand Pkwy N,Katy,TX,77449,HARRIS,Super Store,29.801588,-95.775002,148076
1363847,El Rancho 1639,3050 Fry Rd,Katy,TX,77449,HARRIS,Super Store,29.813572,-95.718903,148506
1261885,ALDI 78064 78064,9002 Spencer Hwy,La Porte,TX,77571,HARRIS,Supermarket,29.664097,-95.097939,149044
1262025,HEB Food Store 720,4517 Kingwood Dr,Houston,TX,77345,HARRIS,Supermarket,30.050241,-95.183975,149063
1386238,Sellers Bros. 10 10,10901 Market St,Houston,TX,77029,HARRIS,Super Store,29.767689,-95.236633,149134
1386252,Sellers Bros. 11,3337 Telephone Rd,Houston,TX,77023,HARRIS,Super Store,29.711754,-95.312775,149135
1386256,Sellers Bros. 14,402 Edgebrook Dr,Houston,TX,77034,HARRIS,Super Store,29.646252,-95.220673,149138
1386262,Sellers Bros. 16,1523 Little York Rd,Houston,TX,77093,HARRIS,Super Store,29.870928,-95.362793,149139
1386267,Sellers Bros. 17,5900 Renwick Dr,Houston,TX,77081,HARRIS,Super Store,29.717848,-95.484909,149140
1386284,Sellers Bros. 20,601 N Cesar Chavez Blvd,Houston,TX,77011,HARRIS,Super Store,29.741419,-95.307404,149143
1386286,Sellers Bros. 21,9494 Hammerly Blvd,Houston,TX,77080,HARRIS,Super Store,29.810556,-95.525673,149144
1386287,Sellers Bros. 22,2311 Strawberry Rd,Pasadena,TX,77502,HARRIS,Super Store,29.675917,-95.192909,149145
1386288,Sellers Bros. 24,1050 Federal Rd,Houston,TX,77015,HARRIS,Super Store,29.772287,-95.21624,149146
1386320,HEB Food Store 756,6055 South Freeway,Houston,TX,77004,HARRIS,Supermarket,29.735565,-95.369499,149165
1263684,HEB Food Store 724,10161 W Grand Pkwy S,Houston,TX,77064,HARRIS,Supermarket,29.919683,-95.57576,149269
1263204,Guerrerense Meat Market #4,16272 Imperial Valley Dr,Houston,TX,77060,HARRIS,Grocery Store,29.936628,-95.397858,149397
1263274,Supermercado El Rey LLC,2102 McCarty St,Houston,TX,77029,HARRIS,Grocery Store,29.755451,-95.283623,149410
1263379,Lmmm Houston no. 73 Ltd.,10590 Fuqua St,Houston,TX,77089,HARRIS,Supermarket,29.611273,-95.228745,149419
1386120,Los Comales Meat Market,2372 Fm 1960 Rd W,Houston,TX,77068,HARRIS,Grocery Store,30.006052,-95.465919,149516
1386148,Sellers Bros Inc.,8011 Elvera St,Houston,TX,77012,HARRIS,Super Store,29.708813,-95.2799,149522
1385649,La Michoacana Supermarket 76,3201 Spencer Hwy,Pasadena,TX,77504,HARRIS,Grocery Store,29.665018,-95.195145,149571
1264297,Afghan Halal Market,6409 Hillcroft St,Houston,TX,77081,HARRIS,Grocery Store,29.713104,-95.494736,149769
1266191,Lmmm Houston 70 Ltd. 70,6845 Fry Rd,Houston,TX,77449,HARRIS,Other,29.801592,-95.720474,150110
1266373,Recipe For Success' Hope Farms,10401 Scott St,Houston,TX,77051,HARRIS,Farmers and Markets,29.64649,-95.368332,150319
1266798,Fiesta Mart 201,2877 S Richey St,Houston,TX,77017,HARRIS,Super Store,29.676916,-95.23156,150364
1267412,Grocery Services Inc 35,8950 Will Clayton Pkwy,Humble,TX,77338,HARRIS,Grocery Store,29.979118,-95.248177,150749
1564631,Braeswood Farmers Market NAFMNP,10425 Hillcroft St,Houston,TX,77096,HARRIS,Farmers and Markets,29.667751,-95.490402,151675
1329561,Bernal Meat Market,2412 Pasadena Blvd,Pasadena,TX,77502,HARRIS,Grocery Store,29.682096,-95.178856,152258
1270057,La Esperanza Meat Market,8020 Fairbanks N Houston Rd,Houston,TX,77064,HARRIS,Grocery Store,29.897051,-95.524773,152609
1270329,Walmart 351,25800 KUYKENDAHL RD,TOMBALL,TX,77375,HARRIS,Super Store,30.135088,-95.550613,152636
1352538,Matamoros Meat Market 9,14660 Wallisville Rd,Houston,TX,77049,HARRIS,Grocery Store,29.805662,-95.186691,152818
1270604,New Iqra World Food Market,7031 Fm 1960 Rd W,Humble,TX,77338,HARRIS,Grocery Store,30.007393,-95.319382,152932
1389874,El Paisano 1,2311 Parker Rd,Houston,TX,77093,HARRIS,Grocery Store,29.859457,-95.349525,153492
1390518,Asante African Market,7555 Bellaire Blvd,Houston,TX,77036,HARRIS,Grocery Store,29.704956,-95.515633,153560
1429522,Don Javier,13526 Tidwell Rd,Houston,TX,77044,HARRIS,Grocery Store,29.852444,-95.189095,154116
1429545,ALDI 78056,2550 Gessner Rd,Houston,TX,77080,HARRIS,Supermarket,29.818098,-95.544762,154162
1331535,La Guerrera Meat Market,8104 W Tidwell Rd,Houston,TX,77040,HARRIS,Grocery Store,29.851009,-95.516197,154344
1330648,Indepence Heights 10652,101 North Loop,Houston,TX,77018,HARRIS,Super Store,29.813332,-95.398491,154661
1356751,K&K Grocery and Halal Meat,26434 Lexington Rd,Spring,TX,77373,HARRIS,Grocery Store,30.078003,-95.427528,155001
1380857,Al-tawil,16618 Clay Rd,Houston,TX,77084,HARRIS,Grocery Store,29.835644,-95.652893,155189
1381019,El Toro Meat Market,7231 Fm 1960 Rd W,Humble,TX,77338,HARRIS,Grocery Store,30.006269,-95.315063,155262
1381426,Sol Supermarket,7200 Lyons Ave,Houston,TX,77020,HARRIS,Supermarket,29.776302,-95.297272,155942
1463511,Umoja African Mart ,1100 Wilcrest Dr,Houston,TX,77042,HARRIS,Grocery Store,29.750748,-95.573174,156568
1463739,Freemen's Town Farmers Market NAFMNP,1108 Victor St,Houston,TX,77019,HARRIS,Farmers and Markets,29.754066,-95.379189,156613
1463025,La Giradilla Cuban Bakery,6831 S Gessner Rd,Houston,TX,77036,HARRIS,Grocery Store,29.706732,-95.537781,156717
1336401,Lmmm 30 Houston Ltd. 30,20221 Clay Rd,Houston,TX,77449,HARRIS,Grocery Store,29.83075,-95.726006,157364
1421133,La Potosina Meat Market / Solution Cellular,40308 Highway 290 Business,Waller,TX,77484,HARRIS,Grocery Store,30.05566,-95.921669,158394
1421451,Fresh Green Delights,10103 Fondren Rd,Houston,TX,77096,HARRIS,Grocery Store,29.669003,-95.507927,158936
1434266,Telo Market #8 Inc. 8,5702 Lyons Ave,Houston,TX,77020,HARRIS,Grocery Store,29.776297,-95.314011,159630
1338730,El Rancho 1634,5264 W 34th St,Houston,TX,77092,HARRIS,Super Store,29.819588,-95.465973,160618
1433307,Lacosechaswfoodstore,5817 Bellaire Blvd,Houston,TX,77081,HARRIS,Grocery Store,29.705029,-95.483948,161080
1341591,Costco Wholesale 1330,1310 Jasmine Ave,Webster,TX,77598,HARRIS,Super Store,29.533978,-95.136406,161619
1408822,La Hacienda Meat Market 1,16335 Stuebner Airline Rd,Spring,TX,77379,HARRIS,Grocery Store,30.016117,-95.519211,161853
1410303,El Jalapeno Meat Market 1,2119 Southmore Ave,Pasadena,TX,77502,HARRIS,Grocery Store,29.691687,-95.184822,162029
1436401,Welcome Food Center,9180 Bellaire Blvd,Houston,TX,77036,HARRIS,Other,29.706656,-95.544731,163025
1423115,La Sabrosa Meat Market 1,400 N Alexander Dr,Baytown,TX,77520,HARRIS,Grocery Store,29.731398,-94.95697,163952
1477669,La Michoacana Meat Market H85,20431 Imperial Valley Dr,Houston,TX,77073,HARRIS,Supermarket,29.988434,-95.410927,164088
1411223,La Michoacana Meat Market #82,27722 State Highway 249,Tomball,TX,77375,HARRIS,Supermarket,30.078175,-95.628792,164437
1601416,Fresco Supermarket,100 N Alexander Dr,Baytown,TX,77520,HARRIS,Grocery Store,29.729189,-94.957672,164551
1403175,Westheimer Halal Meat Llc 1,12280 Westheimer Rd,Houston,TX,77077,HARRIS,Grocery Store,29.736397,-95.597298,164850
1411675,Al Barakah Halal Meat,17754 Fm 529 Rd,Houston,TX,77095,HARRIS,Grocery Store,29.879284,-95.67971,165694
1424162,Target Store T3375,2075 Westheimer Rd,Houston,TX,77098,HARRIS,Super Store,29.74168,-95.40976,165816
1512258,Carribbean Supermarket,13519 Bammel North Houston Rd,Houston,TX,77066,HARRIS,Grocery Store,29.974154,-95.494896,166346
1512082,Central African Market Llc,7334 Fry Rd,Houston,TX,77433,HARRIS,Other,29.886494,-95.720421,166594
1512877,Aso Rock Market Houston ,13711 Westheimer Rd,Houston,TX,77077,HARRIS,Grocery Store,29.735115,-95.633186,166970
1412633,Montana Meat,139 Tidwell Rd,Houston,TX,77022,HARRIS,Grocery Store,29.845882,-95.376289,167782
1405567,La Michoacana Meat Market  78 Ltd.,13867 Cypress North Houston Rd,Cypress,TX,77429,HARRIS,Supermarket,29.94733,-95.630699,167841
1437768,Tan Binh Market 00002,11700 Bellaire Blvd,Houston,TX,77072,HARRIS,Supermarket,29.704924,-95.58429,168231
1456077,Panaderia Tierra Caliente #4 4,5406 Airline Dr,Houston,TX,77076,HARRIS,Grocery Store,29.846081,-95.38327,169383
1480001,La Nueva Campesina,510 Park St,Baytown,TX,77520,HARRIS,Grocery Store,29.746593,-94.971809,170210
1583386,HEB Food Store #797 797,24924 Morton Ranch Rd,Katy,TX,77493,HARRIS,Supermarket,29.816988,-95.805206,170423
1438821,Supermercado Gigante #1,7610 Office City Dr,Houston,TX,77012,HARRIS,Grocery Store,29.700148,-95.286491,171202
1653546,La Bodeguita Del Medio 1,3626 Garth Rd,Baytown,TX,77521,HARRIS,Grocery Store,29.761568,-94.977303,171643
1439356,Saadi's Farm,26261 Sharp Rd,Katy,TX,77493,HARRIS,Farmers and Markets,29.903749,-95.83223,171860
481494,Mi Favorita Meat Market #2,11214 Veterans Memorial Dr,Houston,TX,77067,HARRIS,Grocery Store,29.944986,-95.464569,171951
1491745,Zaina Supermarket,2735 Fondren Rd,Houston,TX,77063,HARRIS,Grocery Store,29.735619,-95.520485,172101
1596493,Mini Mercado,8169 Antoine Dr,Houston,TX,77088,HARRIS,Grocery Store,29.885851,-95.475182,172201
1515298,The M.A.R.S. Farm,12581 Dunlap St,Houston,TX,77035,HARRIS,Farmers and Markets,29.638964,-95.495277,172233
1491437,Cafe Pinar Cuban Market,5803 Fry Rd,Katy,TX,77449,HARRIS,Grocery Store,29.855595,-95.719185,172316
1515081,Hope Farm,10595 Fondren Rd,Houston,TX,77096,HARRIS,Farmers and Markets,29.66671,-95.508377,172870
1480845,La Michoacana Supermarket #21,2312 N Alexander Dr,Baytown,TX,77520,HARRIS,Supermarket,29.746334,-94.948448,173335
1689846,Sprouts Farmers Market 178,4303 Kingwood Dr,Kingwood,TX,77339,HARRIS,Supermarket,30.050028,-95.186584,173536
1498193,Havilah African Food Market,19540 Clay Rd,Katy,TX,77449,HARRIS,Grocery Store,29.831568,-95.710342,174007
1481123,Lmmm Houston 83 Ltd.,105 Kennings Rd,Crosby,TX,77532,HARRIS,Other,29.889721,-95.062386,174139
1481549,HEB Food Store 769,18611 Eastfield Dr.,Webster,TX,77598,HARRIS,Supermarket,29.547537,-95.146614,174733
1492382,Urban Harvest Mobile Market ,3201 Canal Street,Houston,TX,77003,HARRIS,Farmers and Markets,29.753475,-95.339172,175302
1483513,Hisway African Grocery Store N/A,3507 Paintbrush Dawn Ct,Katy,TX,77493,HARRIS,Other,29.82268,-95.778107,175416
1492894,Tan Dinh Food Market,12760 Veterans Memorial Dr,Houston,TX,77014,HARRIS,Supermarket,29.97439,-95.487198,175981
1505319,Panaderia El Horno,4221 Jura Dr,Houston,TX,77084,HARRIS,Grocery Store,29.835915,-95.654343,177170
1653718,Maxey Cuba,505 Maxey Rd,Houston,TX,77013,HARRIS,Grocery Store,29.785913,-95.218086,177871
1499639,Pyburns Food Market,13824 Almeda Rd,Houston,TX,77053,HARRIS,Supermarket,29.606142,-95.422928,178713
1501918,District Market,3337 Cypress Creek Pkwy,Houston,TX,77068,HARRIS,Grocery Store,29.99803,-95.479935,179163
1536452,Afrik Kalabash Market,14929 Westpark Dr,Houston,TX,77082,HARRIS,Other,29.718088,-95.65274,180174
1587496,HEB Food Store 798,16000 Woodland Hills Dr,Humble,TX,77396,HARRIS,Supermarket,29.946228,-95.211884,180269
1469073,Panaderia Tierra Caliente 9,7610 Office City Dr,Houston,TX,77012,HARRIS,Grocery Store,29.700129,-95.286499,180878
1506076,Carniceria Mexico Lindo,6267 Highway 6 S,Houston,TX,77083,HARRIS,Grocery Store,29.710325,-95.642731,181240
1687679,El Encanto Cuban Market Llc,7710 Bellaire Blvd,Houston,TX,77036,HARRIS,Grocery Store,29.705606,-95.522362,182821
1538209,Gordon Food Service Store MP214,12553 Westheimer Rd,Houston,TX,77077,HARRIS,Supermarket,29.734695,-95.604271,183651
1538211,Gordon Food Service Store MP215,649 S Mason Rd,Katy,TX,77450,HARRIS,Supermarket,29.773605,-95.74987,183652
1538218,Gordon Food Service Store MP218,4601 Fm 1960 Rd W,Houston,TX,77069,HARRIS,Supermarket,29.98538,-95.499161,183656
1538220,Gordon Food Service Store MP219,5151 Antoine Dr,Houston,TX,77092,HARRIS,Supermarket,29.839878,-95.474785,183657
1538221,Gordon Food Service Store MP223,99 Braeswood Sq,Houston,TX,77096,HARRIS,Supermarket,29.678892,-95.47847,183658
1537402,Kosher Butcher,9846 Fondren Rd,Houston,TX,77096,HARRIS,Grocery Store,29.673563,-95.509827,183976
1487944,Nahim Trading Inc,630 Fm 1959 Rd,Houston,TX,77034,HARRIS,Grocery Store,29.594002,-95.180336,184525
1503946,Carnitas Y Barbacoa Los Compadres Meat Market,3604 W Baker Rd,Baytown,TX,77521,HARRIS,Grocery Store,29.771257,-95.003876,186070
1504887,Lule Umoja Store,12148 Fondren Rd,Houston,TX,77035,HARRIS,Grocery Store,29.647671,-95.508835,186218
1539212,Louanba Farm,12581 Dunlap St,Houston,TX,77035,HARRIS,Farmers and Markets,29.638964,-95.495277,187876
1672659,Variedades El Salvador,5801 Bissonnet St,Bellaire,TX,77401,HARRIS,Grocery Store,29.699827,-95.482635,187909
1191910,My Favorite Meat Market,14615 Old Humble Rd,Humble,TX,77396,HARRIS,Grocery Store,29.932964,-95.292,189010
1645589,Finca Tres Robles Farm Store,5715 Canal St,Houston,TX,77011,HARRIS,Other,29.744932,-95.316772,189437
993766,La Michoacana Meat Market 18,20300 Franz Rd,Katy,TX,77449,HARRIS,Supermarket,29.801601,-95.736031,189645
1509844,Islazul Cuban Market Llc,2128 Fm 1960 Rd E,Houston,TX,77073,HARRIS,Grocery Store,30.024275,-95.394081,190281
1509901,Ramadan Meat Market Inc,4750 Fm 1960 Rd W,Houston,TX,77069,HARRIS,Grocery Store,29.985783,-95.503197,190298
1509924,Texas African Grocery Store,10814 S Gessner Rd,Houston,TX,77071,HARRIS,Grocery Store,29.661802,-95.528954,190303
1151503,La Esperanza Meat Market 2,14230 State Highway 249,Houston,TX,77086,HARRIS,Grocery Store,29.924152,-95.498573,190884
1682130,Hd Food Market 1,10625 Veterans Memorial Dr,Houston,TX,77038,HARRIS,Grocery Store,29.933493,-95.457741,191205
1189333,East End Market,2600 Navigation Blvd,Houston,TX,77003,HARRIS,Farmers and Markets,29.757648,-95.343452,191845
1490647,Mini Indian Fiesta,6415 Hillcroft St,Houston,TX,77081,HARRIS,Grocery Store,29.713045,-95.494064,192166
1510966,Kabul Grocery,6502 Bellaire Blvd,Houston,TX,77074,HARRIS,Grocery Store,29.70586,-95.497635,192353
1548370,La Michoacana Supermarket #24,5015 Katy Hockley Rd,Katy,TX,77493,HARRIS,Grocery Store,29.846071,-95.823708,192750
1548424,La Michoacana Supermarket #23,6811 Bellfort St,Houston,TX,77087,HARRIS,Grocery Store,29.668709,-95.309402,192858
1541907,Bud's House Of Meat,6730 Cullen Blvd,Houston,TX,77021,HARRIS,Super Store,29.689917,-95.353836,193079
1511619,Muhajir Grocery Store,5880 Ranchester Dr,Houston,TX,77036,HARRIS,Grocery Store,29.714535,-95.548698,193902
1511631,Los Pipiles Bakery & Cafe,12033 Veterans Memorial Dr,Houston,TX,77067,HARRIS,Grocery Store,29.958858,-95.47715,193918
1062646,La Michoacana Meat Market 58,9223 Stella Link Rd,Houston,TX,77025,HARRIS,Other,29.681583,-95.439156,194320
1694076,GUERRERO MEAT MARKET,1940 Fry Rd,Houston,TX,77084,HARRIS,Grocery Store,29.794945,-95.718605,195030
1474432,Savoy Supermarket,11246 S Wilcrest Dr,Houston,TX,77099,HARRIS,Other,29.658033,-95.571342,195754
941931,El Ahorro Supermarket 15,6910 Capitol St,Houston,TX,77011,HARRIS,Supermarket,29.734875,-95.304329,197865
1203879,Orem Food Market,4411 W Orem Dr,Houston,TX,77045,HARRIS,Grocery Store,29.627542,-95.445229,198117
1142610,Chepes Meat Market,17966 Roberts Rd,Hockley,TX,77447,HARRIS,Other,30.035721,-95.815308,198743
1586778,Bangla Bazar,13442 Bellaire Blvd,Houston,TX,77083,HARRIS,Grocery Store,29.704222,-95.621811,198789
838233,EL AHORRO SUPERMARKET 5,4725 Telephone Rd,Houston,TX,77087,HARRIS,Super Store,29.691751,-95.298767,200238
1003941,Phoenicia Specialty Foods,1001 Austin St,Houston,TX,77010,HARRIS,Super Store,29.754515,-95.36142,201137
1273978,Lmmm Houston 62 Ltd 62,13430 Fm 529 Rd,Houston,TX,77041,HARRIS,Supermarket,29.879513,-95.614388,201160
1031307,Panchos Meat Market 7,4351 S Kirkwood Rd,Houston,TX,77072,HARRIS,Grocery Store,29.70929,-95.587593,201262
1673458,Trader Joe's Cypress 432,9715 Towne Lake Parkway,Cypress,TX,77433,HARRIS,Supermarket,29.920738,-95.690346,201356
1207867,Pyburn's Food Market no.2,12675 Fondren Rd,Houston,TX,77035,HARRIS,Supermarket,29.638882,-95.508163,201424
1171497,LMMM Houston 64,10092 Veterans Memorial Dr,Houston,TX,77038,HARRIS,Supermarket,29.916578,-95.443703,201442
1673135,Costco Wholesale 1208,26960 Northwest Fwy,Cypress,TX,77433,HARRIS,Super Store,29.978508,-95.711281,201481
1247167,La Moreliana Meat Market 3,13521 Torrey Forest Dr,Houston,TX,77014,HARRIS,Grocery Store,29.976543,-95.48822,201579
1195002,Bismillah Grocers And Halal Meat,15106 Highway 3,Webster,TX,77598,HARRIS,Grocery Store,29.568396,-95.146812,201752
1233586,Ca Mau Foods Market,18918 Fm 529 Rd,Cypress,TX,77433,HARRIS,Other,29.879837,-95.704025,201902
997943,La Michoacana Meat Market 53,5902 N Shepherd Dr,Houston,TX,77091,HARRIS,Supermarket,29.851376,-95.411949,201910
1577841,Hong Kong Food Market #5 5,9820 Gulf Fwy,Houston,TX,77034,HARRIS,Other,29.651487,-95.251877,202358
1225648,La Michoacana Super Market 72,2598 Fm 1960 Rd,Houston,TX,77073,HARRIS,Supermarket,30.022835,-95.389488,204096
920421,HEB Food Store 610,2121 Fm 2920 Rd,Spring,TX,77388,HARRIS,Supermarket,30.069958,-95.44838,204233
1653780,World Food Mart,14625 Beechnut St,Houston,TX,77083,HARRIS,Super Store,29.688543,-95.646355,204420
1640780,La Michoacana Supermarket #32,342 S Mason Rd,Katy,TX,77450,HARRIS,Supermarket,29.780176,-95.751945,204891
1040442,La Michoacana Meat Market Houston 43,6500 Spencer Hwy,Pasadena,TX,77505,HARRIS,Grocery Store,29.664104,-95.139107,205059
1260896,Pancho's Super Market,1201 South St,Pasadena,TX,77503,HARRIS,Supermarket,29.73666,-95.17173,205088
824868,El Ahorro Supermarket 3,5859 Bissonnet St,Bellaire,TX,77401,HARRIS,Supermarket,29.698832,-95.483406,205234
946342,Joe V Smart Shop 616,12035 Antoine Dr,Houston,TX,77066,HARRIS,Supermarket,29.960569,-95.481056,205545
1280100,African Farms Market,12320 Fondren Rd,Houston,TX,77035,HARRIS,Grocery Store,29.643476,-95.508392,205585
1235284,Carniceria Villagran,11303 Bissonnet St,Houston,TX,77099,HARRIS,Grocery Store,29.674574,-95.578285,205893
1203925,Guerrerense Meat Market 3,10675 Huffmeister Rd,Houston,TX,77065,HARRIS,Grocery Store,29.930719,-95.628792,205928
1212677,Payless Supermarket,7843 Ley Rd,Houston,TX,77028,HARRIS,Supermarket,29.83149,-95.28595,206249
1684699,Afg Houston Halal Market,7555 Bellaire Blvd,Houston,TX,77036,HARRIS,Grocery Store,29.704218,-95.515762,207652
1112296,B And W Meat Company,4801 N Shepherd Dr,Houston,TX,77018,HARRIS,Super Store,29.835201,-95.411469,208242
1081524,Jensen Supermarket,6916 Jensen Dr,Houston,TX,77093,HARRIS,Supermarket,29.821941,-95.342522,208440
1266008,La Michoacana Meat Market 74,5319 Fm 1960 Rd E,Humble,TX,77346,HARRIS,Supermarket,29.99884,-95.194122,209464
1653757,Dukkan International Market,8800 Richmond Ave,Houston,TX,77063,HARRIS,Grocery Store,29.729214,-95.519905,209925
1574450,Bay Area Farmers Market NAFMNP,18650 Gulf Fwy,Friendswood,TX,77546,HARRIS,Farmers and Markets,29.548782,-95.152802,210016
1285972,La Carniceria Meat Market,4420 N Shepherd Dr,Houston,TX,77018,HARRIS,Grocery Store,29.829327,-95.410599,210879
1529560,Dulcerias Pinkis 2,3224 Fm 1960 Rd W,Humble,TX,77338,HARRIS,Grocery Store,30.019621,-95.376816,211212
1530494,Amigo Food Mart #3,6905 Bissonnet St,Houston,TX,77074,HARRIS,Grocery Store,29.688787,-95.504074,211762
1530325,Tienda Rio Lempa #1 1,953 Federal Rd,Houston,TX,77015,HARRIS,Grocery Store,29.772476,-95.21447,211952
1579025,Ibom Mart LLC ,9710 S Kirkwood Rd,Houston,TX,77099,HARRIS,Grocery Store,29.673149,-95.587852,212107
1236957,Vishala Grocery 3,13314 Westheimer Rd,Houston,TX,77077,HARRIS,Other,29.73597,-95.624557,212173
1538217,Gordon Restaurant Market MP217,4519 Griggs Rd,Houston,TX,77021,HARRIS,Supermarket,29.702135,-95.347816,212435
840532,EL AHORRO SUPERMARKET 4,3107 Blalock Rd,Houston,TX,77080,HARRIS,Supermarket,29.82271,-95.52346,212962
824870,Food City,5230 Aldine Mail Rd,Houston,TX,77039,HARRIS,Super Store,29.90284,-95.313103,213582
1252938,Renwick Food Market,5920 Dashwood Dr,Houston,TX,77081,HARRIS,Grocery Store,29.707378,-95.485245,213773
1565943,La Michoacana Supermarket #25,10900 Cypress Creek Pkwy,Houston,TX,77070,HARRIS,Other,29.934978,-95.584038,213918
993763,Lmmm Houston 31,3012 Hillcroft St,Houston,TX,77057,HARRIS,Supermarket,29.732821,-95.501373,214185
1531298,Wadani Garifuna Store & Products,6930 Lyons Ave,Houston,TX,77020,HARRIS,Grocery Store,29.776327,-95.300323,214527
1530819,Fyza Food And Halal Meat,12403 Veterans Memorial Dr,Houston,TX,77014,HARRIS,Grocery Store,29.966921,-95.483231,214749
953657,El Ahorro Supermarket with Save A Lot #17,8201 Broadway St,Houston,TX,77061,HARRIS,Super Store,29.674612,-95.277046,215189
1031834,Jusgo Supermarket,9280 Bellaire Blvd,Houston,TX,77036,HARRIS,Super Store,29.705038,-95.54641,215813
1311168,Veritas African Food Store,8103 Creekbend Dr,Houston,TX,77071,HARRIS,Grocery Store,29.665449,-95.521988,215917
1299000,Cindy's All African Food Market,921 Cypress Creek Pkwy,Houston,TX,77090,HARRIS,Grocery Store,30.015896,-95.443398,216055
1265163,Tienda Santa Rosa,188 Uvalde Rd,Houston,TX,77015,HARRIS,Grocery Store,29.798441,-95.182877,216164
1532572,Nimer Nuts Llc,6316 Richmond Ave,Houston,TX,77057,HARRIS,Grocery Store,29.731876,-95.495697,216724
1172992,La Michoacana Meat Market 66,8908 Mesa Dr,Houston,TX,77028,HARRIS,Grocery Store,29.842779,-95.261681,216803
1566471,Nuestra Tienda Latina,7313 Hillcroft St,Houston,TX,77081,HARRIS,Grocery Store,29.698891,-95.492455,216960
1533328,Casa Del Pueblo Meat Market #8,2309 Bingle Rd,Houston,TX,77055,HARRIS,Grocery Store,29.81551,-95.501205,217054
1305389,Farmer's Fresh Meat 1,9541 Mesa Dr,Houston,TX,77078,HARRIS,Super Store,29.850868,-95.262482,217537
846688,Fiesta Mart 66,333B S Mason Rd,Katy,TX,77450,HARRIS,Super Store,29.781006,-95.749146,217773
1199091,Pyburns Farm Fresh Foods,7125 Scott St,Houston,TX,77021,HARRIS,Super Store,29.687178,-95.364151,217900
1132579,La Familia Meat Market,2440 Canal St,Houston,TX,77003,HARRIS,Grocery Store,29.757187,-95.345306,218034
1027199,New Katy Halal Meat And Grocries,2002 Fry Rd,Houston,TX,77084,HARRIS,Grocery Store,29.796165,-95.719002,218087
1597694,Los Reyes De Cuba,12913 Westheimer Rd,Houston,TX,77077,HARRIS,Grocery Store,29.735312,-95.614517,218796
838029,El Ahorro Supermarket 6,10341 Palestine St,Houston,TX,77029,HARRIS,Supermarket,29.766708,-95.245674,219146
1534301,Vishala Grocery #5,17926 Highway 3,Webster,TX,77598,HARRIS,Other,29.536612,-95.118095,219415
1533493,Sangam Supermarket,17689 State Highway 249,Houston,TX,77064,HARRIS,Other,29.958263,-95.545357,219643
1124854,Teloloapan Meat Market #9 ,9908 Beechnut St,Houston,TX,77036,HARRIS,Grocery Store,29.689308,-95.555283,220294
1292838,Matamoros Meat Market 2,4953 Polk St,Houston,TX,77023,HARRIS,Grocery Store,29.736217,-95.326736,220594
1689071,Dashlogs African Market,11030 Bissonnet St,Houston,TX,77099,HARRIS,Other,29.674864,-95.573456,220714
1264708,Gw Supermarket Of Houston,9889 Bellaire Blvd,Houston,TX,77036,HARRIS,Super Store,29.704571,-95.55442,220721
1215128,Tienda Goascoran,10950 Bissonnet St,Houston,TX,77099,HARRIS,Grocery Store,29.674448,-95.572517,221243
1534945,Pulperia La Hondurena 504 #2,241 E Crosstimbers St,Houston,TX,77022,HARRIS,Grocery Store,29.828793,-95.372009,221981
818833,Supermercado Monterrey,9855 Fuqua St,Houston,TX,77075,HARRIS,Grocery Store,29.611662,-95.239159,222377
838230,EL AHORRO SUPERMARKET 7,11132 Aldine Westfield Rd,Houston,TX,77093,HARRIS,Supermarket,29.879168,-95.354752,222870
1056613,Fiesta Mart 79,12584 Westheimer Rd,Houston,TX,77077,HARRIS,Super Store,29.736324,-95.605515,223114
1669491,Tayyaba Grocers & Halal Meat,505 S Mason Rd,Katy,TX,77450,HARRIS,Grocery Store,29.77787,-95.751228,223195
994527,La Michoacana Meat Market 56,638 Freeport St,Houston,TX,77015,HARRIS,Supermarket,29.784821,-95.178246,223402
1109827,Super Mercado El Sol Inc,10001 W Bellfort Ave,Houston,TX,77031,HARRIS,Grocery Store,29.652363,-95.554619,223516
997161,La Michoacana Meat Market 55,5700 Chimney Rock Rd,Houston,TX,77081,HARRIS,Supermarket,29.719412,-95.476563,224174
820208,EL AHORRO 2,12814 Hempstead Rd,Houston,TX,77092,HARRIS,Supermarket,29.834225,-95.505463,224309
1573251,Viet Nam Food Market,13151 Bissonnet St,Houston,TX,77099,HARRIS,Other,29.680372,-95.613174,224319
1286766,Matamoros Meat Market 1 1,647 Gazin St,Houston,TX,77020,HARRIS,Specialty Store,29.776651,-95.304237,224676
953696,La Michoacana Supermarket,8002 S Gessner Rd,Houston,TX,77036,HARRIS,Super Store,29.690971,-95.535133,224757
978070,El Ahorro Supermarket #23,2211 Southmore Ave,Pasadena,TX,77502,HARRIS,Supermarket,29.691729,-95.181931,224782
1218010,Campos Guerrero Llc,14045 Fm 2100 Rd,Crosby,TX,77532,HARRIS,Grocery Store,29.890963,-95.063354,225583
1200771,Carnicerias Teloloapan 6,7816 N Highway 146,Baytown,TX,77523,HARRIS,Grocery Store,29.806458,-94.903313,225587
1293562,In And Out Tidwell,4902 Tidwell Rd,Houston,TX,77016,HARRIS,Grocery Store,29.848099,-95.318733,225615
1055285,Afrimart Foods Logistics,18174 River Sage Dr,Houston,TX,77084,HARRIS,Grocery Store,29.853855,-95.682373,225641
1309782,Fahad Grocery & Halal Meat,10521 Jones Rd,Houston,TX,77065,HARRIS,Grocery Store,29.926191,-95.584961,226001
1184275,El Rey Meat Market,2430 Airline Dr,Houston,TX,77009,HARRIS,Grocery Store,29.809401,-95.381973,226037
1274480,Flamingo 101,1301 Allen Genoa Rd,Pasadena,TX,77502,HARRIS,Grocery Store,29.690336,-95.234344,226174
1245252,Southwest Farmers Market,9801 Bissonnet St,Houston,TX,77036,HARRIS,Supermarket,29.675203,-95.550621,226364
1669269,Panificadora La Michoacana,10822 W Bellfort Ave,Houston,TX,77099,HARRIS,Grocery Store,29.655588,-95.569901,227651
1325277,Supermercado Teloloapan 17 17,13180 Fm 529 Rd,Houston,TX,77041,HARRIS,Grocery Store,29.880083,-95.611092,228249
801467,SUPERMERCADO POPULAR,8621 W Airport Blvd,Houston,TX,77071,HARRIS,Grocery Store,29.642136,-95.529266,228415
1562753,Grace Farm,10595 Fondren Rd,Houston,TX,77096,HARRIS,Farmers and Markets,29.66671,-95.508377,228501
1561004,Latins Good Grocery Store Llc,9532 Richmond Ave,Houston,TX,77063,HARRIS,Grocery Store,29.729258,-95.534393,228755
1563262,Global Halal Supermarket Llc,5604 Hillcroft St,Houston,TX,77036,HARRIS,Grocery Store,29.72172,-95.501633,229049
1560005,Market Square Park Farmers Market,301 Milam St,Houston,TX,77002,HARRIS,Farmers and Markets,29.762627,-95.36219,229963
1570872,99 Ranch Market 109,12230 Westheimer Rd.,Houston,TX,77077,HARRIS,Super Store,29.737198,-95.594917,230222
1565715,La Michoacana Meat Market H89,9275 Richmond Ave,Houston,TX,77063,HARRIS,Other,29.728319,-95.526993,230735
1564101,Dong Khanh Market 1,16215 Clay Rd,Houston,TX,77084,HARRIS,Grocery Store,29.834534,-95.649536,231091
1568026,Arlan's Market #8 ,6500 Fm 2100 Rd,Crosby,TX,77532,HARRIS,Supermarket,29.921066,-95.06913,231384
1566031,Tinda Filipino Store,3810 N Mason Rd,Katy,TX,77449,HARRIS,Grocery Store,29.830317,-95.754135,231782
1568261,Arlan's Market #20,31315 Fm 2920 Rd,Waller,TX,77484,HARRIS,Supermarket,30.057322,-95.913696,231794
1584173,Hira Halal Meat And Grocers,17023 Fm 529 Rd,Houston,TX,77095,HARRIS,Grocery Store,29.878386,-95.666168,232289
1646682,Ruposhi Bangla,6921 Highway 6 S,Houston,TX,77083,HARRIS,Grocery Store,29.701332,-95.642227,232403
1566130,Noah's African Market,21211 Fm 529 Rd,Cypress,TX,77433,HARRIS,Grocery Store,29.878836,-95.73719,232832
1510658,Cuban Bakery La Exquisita Llc ,904 Cypress Creek Pkwy,Houston,TX,77090,HARRIS,Grocery Store,30.017218,-95.444427,233202
1595035,Prime Bazaar,8403 Almeda Rd,Houston,TX,77054,HARRIS,Grocery Store,29.685005,-95.39122,233298
1596328,Casa Del Pueblo Meat Market #10 10,544 W Nasa Pkwy,Webster,TX,77598,HARRIS,Other,29.534054,-95.123169,234514
1680692,Vishala Grocery 7,5815 Hillcroft St,Houston,TX,77036,HARRIS,Other,29.719213,-95.500443,234554
1112207,Tien Hung 01,8200 Wilcrest Dr,Houston,TX,77072,HARRIS,Grocery Store,29.689552,-95.570702,234600
1595177,La Moreliana Meat Market #4 4,9846 Fondren Rd,Houston,TX,77096,HARRIS,Other,29.673563,-95.509827,234894
1596122,Neas Market,9224 Fm 1960 Rd W,Houston,TX,77070,HARRIS,Grocery Store,29.947762,-95.563225,235225
1599208,La Munecatracha,8700 Long Point Rd,Houston,TX,77055,HARRIS,Grocery Store,29.803638,-95.50296,235229
1596393,Al-Huda Grocery & Halal Meat Inc,12090 Veterans Memorial Dr,Houston,TX,77067,HARRIS,Grocery Store,29.960695,-95.476776,235258
1596715,Bestfood International Market,9892 Westpark Dr,Houston,TX,77063,HARRIS,Grocery Store,29.720697,-95.534485,235721
1599055,Kabul Halal Supermarket ,9357 Richmond Ave,Houston,TX,77063,HARRIS,Grocery Store,29.727903,-95.530197,235724
1609865,Costco Wholesale 1687,27000 Tomball Pkwy,Tomball,TX,77375,HARRIS,Super Store,30.067398,-95.622955,236217
870983,El Ahorro Supermarket #10,8615 Irvington Blvd,Houston,TX,77022,HARRIS,Supermarket,29.837999,-95.361664,236335
1600359,El Horno #2,2450 Highway 6 S,Houston,TX,77077,HARRIS,Grocery Store,29.738237,-95.646355,236838
1606080,Guerrero Meat Market No 5 Inc.,5829 W Airport Blvd,Houston,TX,77035,HARRIS,Grocery Store,29.643835,-95.492027,236878
1685410,Ritestop 14,5202 Canal St,Houston,TX,77011,HARRIS,Grocery Store,29.74604,-95.321762,237825
1613589,Acres Home Chamber Farmers Market NAFMNP,6112 Wheatley St,Houston,TX,77091,HARRIS,Farmers and Markets,29.853796,-95.428543,238406
335795,VIET HOA INTERNATIONAL FOODS,8300 W Sam Houston Pkwy S,Houston,TX,77072,HARRIS,Super Store,29.688025,-95.558235,239401
1612155,Neighbors Fresh Food Market,6502 Tidwell Rd,Houston,TX,77016,HARRIS,Grocery Store,29.84824,-95.304321,240089
1609920,Panaderia Tierra Caliente 8,1111 Spencer Hwy,South Houston,TX,77587,HARRIS,Grocery Store,29.665224,-95.216873,240509
1668132,Maharani Grocery,3716 Greenhouse Rd,Houston,TX,77084,HARRIS,Grocery Store,29.825851,-95.703293,240613
1611304,Goshen International Store,7249 Bissonnet St,Houston,TX,77074,HARRIS,Grocery Store,29.685287,-95.509987,240727
1614830,La Monarca Meat Market,8821 Antoine Dr,Houston,TX,77088,HARRIS,Grocery Store,29.894375,-95.480942,240732
1619295,HEB Food Store 806,20017 Bridgeland Creek Pkwy,Cypress,TX,77433,HARRIS,Supermarket,29.93844,-95.753418,241300
1620742,La Michoacana Supermarket #33,3451 W Grand Parkway,Katy,TX,77449,HARRIS,Supermarket,29.822918,-95.767662,241428
1674426,Tan Binh Market 1,11698 Bellaire Blvd,Houston,TX,77072,HARRIS,Grocery Store,29.704933,-95.584076,241895
1622269,Vishala Grocery 9,11886 Wilcrest Dr,Houston,TX,77031,HARRIS,Other,29.649069,-95.567139,242334
1620968,Saigon Asian Market,14650 Fm 529 Rd,Houston,TX,77095,HARRIS,Grocery Store,29.879852,-95.628288,242491
1617131,K&V Bulgarian Market,4620 Fm 1960 Rd W,Houston,TX,77069,HARRIS,Grocery Store,29.987165,-95.501778,244891
1626031,Afghan Dubai,9222 Richmond Ave,Houston,TX,77063,HARRIS,Grocery Store,29.729412,-95.527206,245118
1618403,Beauty's Community Garden NAFMNP,3201 Airline Dr,Houston,TX,77022,HARRIS,Farmers and Markets,29.815413,-95.383018,245697
1664499,Desi Bazaar Groceries,951 Fm 1959 Rd,Houston,TX,77034,HARRIS,Grocery Store,29.589186,-95.18119,247257
1632499,Tienda Rio Lempa 4,5720 Bellaire Boulevard,Houston,TX,77081,HARRIS,Grocery Store,29.706139,-95.48201,247641
1635972,El Super Meat Market And Taqueria,803 E Nasa Prwy,Webster,TX,77598,HARRIS,Grocery Store,29.544741,-95.110229,247800
1632422,Gordon Food Service Store MP216,2212 Spencer Hwy,Pasadena,TX,77504,HARRIS,Supermarket,29.664276,-95.206924,248527
1625045,Atonsu Royal African Market LLC 120,13150 Fm 529 Rd,Houston,TX,77041,HARRIS,Grocery Store,29.880428,-95.609558,248536
1626869,Globus Market,9606 Chimney Rock Rd,Houston,TX,77096,HARRIS,Grocery Store,29.675743,-95.477295,248543
1673936,La Michoacana Supermarket #36,6510 Fm 1960 Rd W,Houston,TX,77069,HARRIS,Supermarket,29.972363,-95.527878,249322
1680242,Healthy Babies 2,6015 Hillcroft Ave,Houston,TX,77081,HARRIS,Other,29.71657,-95.497055,250279
1670864,Supermercado Gigante #2,9436 N Houston Rosslyn Rd,Houston,TX,77088,HARRIS,Grocery Store,29.877369,-95.493721,250370
1408661,African Food Embassy,18311 Clay Rd,Houston,TX,77084,HARRIS,Grocery Store,29.830587,-95.683876,250439
1666166,Tirupati Balaji Grocers,949 S Mason Rd,Katy,TX,77450,HARRIS,Other,29.768208,-95.750603,251677
1686987,Enjels Hypermarket & Restaurant,11502 S Wilcrest Dr,Houston,TX,77099,HARRIS,Grocery Store,29.654905,-95.571564,252102
1670707,Pancho's Meat Market #8 8,9340 Fuqua St,Houston,TX,77075,HARRIS,Other,29.61026,-95.250832,252295
1677644,Ali Mini Mart 2525 F,2525 Friendswoodlink Rd,Friendswood,TX,77546,HARRIS,Grocery Store,29.530272,-95.163338,252504
1690352,Siempre Grocery 030,10028A Bissonnet St,Houston,TX,77036,HARRIS,Other,29.675293,-95.554939,253868
1690344,Siempre Grocery 024,13443 East Fwy,Houston,TX,77015,HARRIS,Grocery Store,29.771654,-95.184868,253946
1690841,Funkia Pharmacy And Groceries,6211 Barker Cypress Rd,Houston,TX,77084,HARRIS,Grocery Store,29.863253,-95.683395,254176
1690351,Siempre Grocery 029,10851 Scarsdale Blvd,Houston,TX,77089,HARRIS,Grocery Store,29.584736,-95.215996,254282
1690358,Siempre Grocery 032,5982 Renwick Dr,Houston,TX,77081,HARRIS,Other,29.717066,-95.485458,254389
1589168,Crestmont Park Supermarket,11404 Martin Luther King Blvd,Houston,TX,77048,HARRIS,Grocery Store,29.636023,-95.340057,254509
1690368,Siempre Grocery 033,3634 Garth Rd,Baytown,TX,77521,HARRIS,Grocery Store,29.762093,-94.976837,254617
1442313,La Michoacana Meat Market #17,1002 Boundary St,Houston,TX,77009,HARRIS,Grocery Store,29.784374,-95.36145,254638
1690360,Siempre Grocery 034,12825 S Post Oak Rd,Houston,TX,77045,HARRIS,Grocery Store,29.642426,-95.463287,254651
1307342,Corina's Bakery And More,7908 Hillcroft Ave,Houston,TX,77081,HARRIS,Grocery Store,29.693096,-95.493385,254696
1690346,Siempre Grocery 020,11509 Veterans Memorial Dr,Houston,TX,77067,HARRIS,Grocery Store,29.948887,-95.469818,254849
1696588,Sprouts Farmers Market 725,1001 W Bay Area Blvd,Webster,TX,77598,HARRIS,Supermarket,29.540611,-95.137039,255004
1688905,Mercadito Catracho 504,334 Hill Rd,Houston,TX,77037,HARRIS,Other,29.895334,-95.392929,255294
1690365,Siempre Grocery 036,11721 Airline Dr,Houston,TX,77037,HARRIS,Grocery Store,29.925699,-95.409782,255296
