Record_ID,Store_Name,Store_Street_Address,City,State,Zip_Code,County,Store_Type,Latitude,Longitude,ObjectId
1697481,WinCo Foods 122,1800 N Graves St,McKinney,TX,75069,COLLIN,Supermarket,33.215332,-96.626961,795
1661182,Gourmet European Market,17435 Preston Rd,Dallas,TX,75252,COLLIN,Grocery Store,32.990887,-96.803009,1065
1637861,Costco Wholesale 1694,5620 W University Dr,Prosper,TX,75078,COLLIN,Super Store,33.219467,-96.894341,2704
238481,KROGER  563,4017 14th St,Plano,TX,75074,COLLIN,Super Store,33.014118,-96.655968,4215
237036,Walmart Supercenter 5210,2050 N Highway 78,Wylie,TX,75098,COLLIN,Super Store,33.024948,-96.51162,4528
237331,KROGER 581,2925 Custer Rd,Plano,TX,75075,COLLIN,Super Store,33.039341,-96.733543,4546
234334,KROGER  560,7500 Preston Rd,Frisco,TX,75034,COLLIN,Super Store,33.140022,-96.804436,4823
262552,Tom Thumb 0296,6800 W Virginia Pkwy,McKinney,TX,75071,COLLIN,Supermarket,33.198975,-96.706665,6297
261023,TOM THUMB  1788,7801 Alma Dr,Plano,TX,75025,COLLIN,Supermarket,33.082928,-96.712303,6797
307731,Walmart Supercenter 5211,5001 McKinney Ranch Pkwy,McKinney,TX,75070,COLLIN,Super Store,33.159023,-96.681648,7117
380337,Whole Foods Market 10030,2201 Preston Rd,Plano,TX,75093,COLLIN,Super Store,33.029694,-96.796867,8124
294553,La Michoacana Meat Market 17,1409 Jupiter Rd,Plano,TX,75074,COLLIN,Super Store,33.019035,-96.682617,8531
355428,TOM THUMB  2554,3100 Independence Pkwy,Plano,TX,75075,COLLIN,Supermarket,33.039661,-96.75322,9618
340582,Tom Thumb 4105,4625 Frankford Rd,Dallas,TX,75287,COLLIN,Supermarket,32.997757,-96.827385,11154
315689,Walmart Supercenter 206,2041 N Redbud Blvd,McKinney,TX,75069,COLLIN,Super Store,33.220486,-96.628944,12382
264953,KROGER  544,1212 E Bethany Dr,Allen,TX,75002,COLLIN,Super Store,33.085472,-96.644928,13706
360674,KROGER 522,7100 INDEPENDENCE PKY,PLANO,TX,75025,COLLIN,Super Store,33.073318,-96.748627,15791
403698,ALBERTSONS 4234,3001 S Central Expy # 200,McKinney,TX,75070,COLLIN,Supermarket,33.170822,-96.640396,17310
403927,Walmart SUPERCENTER 2996,18121 MARSH LANE,DALLAS,TX,75287,COLLIN,Super Store,32.996006,-96.855614,17329
504608,Kroger 547,3205 Main St,Frisco,TX,75034,COLLIN,Super Store,33.152981,-96.862007,18824
476560,TOM THUMB  3641,3411 Custer Pkwy,Richardson,TX,75080,COLLIN,Supermarket,32.999069,-96.72924,18962
392280,KROGER 568,1320 W McDermott Dr,Allen,TX,75013,COLLIN,Super Store,33.100899,-96.700783,23268
567145,Tom Thumb 4239,921 S Westgate Way,Wylie,TX,75098,COLLIN,Supermarket,33.005795,-96.554611,23682
523380,Fiesta Mart 59,1200 E PARKER RD,PLANO,TX,75074,COLLIN,Super Store,33.037903,-96.696541,24575
444810,TOM THUMB  2595,3945 Legacy Dr,Plano,TX,75023,COLLIN,Supermarket,33.073994,-96.770744,25012
631713,Walmart SUPERCENTER  2883,8801 Ohio Dr,Plano,TX,75024,COLLIN,Super Store,33.097851,-96.796913,25298
601009,TOM THUMB  3582,18212 Preston Rd,Dallas,TX,75252,COLLIN,Supermarket,32.999798,-96.793686,26163
634435,Walmart 3482,425 COIT RD,PLANO,TX,75075,COLLIN,Super Store,33.004128,-96.770798,26720
683779,TOM THUMB  2570,5968 W Parker Rd,Plano,TX,75093,COLLIN,Supermarket,33.045124,-96.828644,26921
1684916,Desi Meat And Grocery,701 W White St,Anna,TX,75409,COLLIN,Other,33.34383,-96.557037,28083
686057,Walmart Supercenter 2086,1700 Dallas Pkwy,Plano,TX,75093,COLLIN,Super Store,33.026211,-96.829292,28363
491601,Target Store 1764,2200 Dallas Pkwy,Plano,TX,75093,COLLIN,Super Store,33.030441,-96.828789,29997
836753,Desi Bazaar,801 S Greenville Ave,Allen,TX,75002,COLLIN,Grocery Store,33.087341,-96.671097,30663
555507,TOM THUMB  2581,4848 Preston Rd,Frisco,TX,75034,COLLIN,Supermarket,33.118431,-96.805443,31424
604582,Walmart SUPERCENTER  2926,6000 Coit Rd,Plano,TX,75023,COLLIN,Super Store,33.054783,-96.770348,31851
574348,Walmart NEIGHBORHOOD MKT 3574,1520 E Exchange Pkwy,Allen,TX,75002,COLLIN,Super Store,33.114864,-96.629944,33308
799232,BROOKSHIRE 73,675 Sunset Blvd,Celina,TX,75009,COLLIN,Supermarket,33.313644,-96.777901,33476
800871,TARGET STORE T 2142,8900 State Highway 121,McKinney,TX,75070,COLLIN,Super Store,33.126797,-96.729897,37078
548421,Kroger 540,3305 N Dallas Pkwy,Plano,TX,75093,COLLIN,Super Store,33.047256,-96.83007,37303
587897,Walmart SUPERCENTER  1117,6001 N Central Expy,Plano,TX,75023,COLLIN,Super Store,33.056114,-96.695152,39776
586883,HEB Central Market 546,320 Coit Rd,Plano,TX,75075,COLLIN,Supermarket,33.002003,-96.764702,39817
625001,Walmart SUPERCENTER 2973,115 W Fm 544,Murphy,TX,75094,COLLIN,Super Store,33.011681,-96.614212,42224
726845,Market Street 561,6100 W Eldorado Pkwy,McKinney,TX,75070,COLLIN,Supermarket,33.174179,-96.696198,45466
808710,Walmart 5311,1721 N CUSTER RD,MCKINNEY,TX,75071,COLLIN,Super Store,33.216644,-96.735573,47024
995229,La Michoacana Meat Market 36,311 W University Dr,McKinney,TX,75069,COLLIN,Supermarket,33.214935,-96.619652,49870
1001843,Walmart Supercenter 5866,8555 Preston Rd,Frisco,TX,75034,COLLIN,Super Store,33.147182,-96.807816,54853
877394,AFRIBBEAN MARKET,901 E Plano Pkwy,Plano,TX,75074,COLLIN,Grocery Store,33.00742,-96.700859,56002
814316,Walmart 2995,8040 INDEPENDENCE PKWY,PLANO,TX,75025,COLLIN,Super Store,33.087002,-96.748055,57555
740189,KROGER 546,4851 LEGACY DR,FRISCO,TX,75034,COLLIN,Super Store,33.11845,-96.840584,60909
819870,Kroger 548,1210 N Greenville Ave,Allen,TX,75002,COLLIN,Super Store,33.115894,-96.652313,61941
850042,INDIA BAZAAR,832 W Spring Creek Pkwy Ste 510,Plano,TX,75023,COLLIN,Super Store,33.055485,-96.709137,62555
852056,Brookshire Food Store 131,1325 W White St,Anna,TX,75409,COLLIN,Supermarket,33.344673,-96.566666,63530
833612,TARGET STORE T 2335,2025 N Central Expy,McKinney,TX,75070,COLLIN,Super Store,33.220409,-96.638733,63852
834193,Brookshire Food Store 79,1705 Audie Murphy Pkwy W,Farmersville,TX,75442,COLLIN,Supermarket,33.158905,-96.38884,64511
1289158,Kroger 589,4650 W University Dr,Prosper,TX,75078,COLLIN,Super Store,33.218761,-96.759415,67024
750720,BRAUM'S 77,1800 N Central Expy,McKinney,TX,75070,COLLIN,Other,33.21542,-96.635582,69153
750820,BRAUM'S 104,1428 Independence Pkwy,Plano,TX,75075,COLLIN,Other,33.018471,-96.749786,69180
750835,BRAUM'S 119,2005 W Parker Rd,Plano,TX,75023,COLLIN,Other,33.041107,-96.732605,69184
751400,BRAUM'S 177,805 E Main St,Allen,TX,75002,COLLIN,Other,33.10051,-96.651611,69614
931746,Kroger 561,12221 Custer Rd,Frisco,TX,75035,COLLIN,Super Store,33.176888,-96.735405,69711
751494,BRAUM'S 263,17879 Preston Rd,Dallas,TX,75252,COLLIN,Other,32.995186,-96.799377,69876
751499,BRAUM'S 278,1222 W McDermott Dr,Allen,TX,75013,COLLIN,Other,33.100868,-96.696922,69894
923753,Costco Wholesale 0664,3800 N Central Expy,Plano,TX,75074,COLLIN,Super Store,33.044254,-96.700394,73624
923767,Costco Wholesale 0684,1701 Dallas Pkwy,Plano,TX,75093,COLLIN,Super Store,33.02354,-96.830254,73740
884561,Target Store 2516,150 E Stacy Rd,Allen,TX,75002,COLLIN,Super Store,33.129692,-96.654732,74006
758688,BRANSCOME GROCERY,407 W Fm 545,Blue Ridge,TX,75424,COLLIN,Grocery Store,33.298252,-96.406197,74298
756581,Sprouts Farmers Market 101,4100 E Legacy Dr,Plano,TX,75024,COLLIN,Supermarket,33.069782,-96.773422,74407
941193,Aldi 25,6951 Preston Rd,Frisco,TX,75034,COLLIN,Supermarket,33.13636,-96.80442,76951
763326,Target Store 1231,907 W McDermott Dr,Allen,TX,75013,COLLIN,Super Store,33.099068,-96.681778,77429
1591493,Tom Thumb 0011,11401 Coit Rd,Frisco,TX,75035,COLLIN,Supermarket,33.172066,-96.768204,77883
906567,Target Store 2550,3440 W FM 544,WYLIE,TX,75098,COLLIN,Super Store,33.011181,-96.593773,77902
954138,99 Ranch Market 102,131 W Spring Creek Pkwy,Plano,TX,75023,COLLIN,Super Store,33.057487,-96.695511,78886
944736,Aldi 31,2400 K Avenue,Plano,TX,75074,COLLIN,Supermarket,33.030346,-96.699028,79856
860468,Market Street 2562,11999 Dallas Pkwy,Frisco,TX,75033,COLLIN,Supermarket,33.176964,-96.843132,80296
1042361,ALDI 75046,3463 W Fm 544,Wylie,TX,75098,COLLIN,Supermarket,33.011429,-96.592842,81880
1296270,El Rancho 1630,821 N McDonald St,McKinney,TX,75069,COLLIN,Super Store,33.2047,-96.611862,82969
865111,Sam's Club 4743,1200 E Spring Creek Pkwy,Plano,TX,75074,COLLIN,Super Store,33.057053,-96.691513,85176
865149,Sam's Club 4906,1670 W University Dr,McKinney,TX,75069,COLLIN,Super Store,33.216599,-96.630341,85193
865212,Sam's Club 8299,301 Coit Rd,Plano,TX,75075,COLLIN,Super Store,33.001572,-96.767921,85384
865228,Sam's Club 6255,8621 Ohio Dr,Plano,TX,75024,COLLIN,Super Store,33.09602,-96.796944,85411
1112827,H Mart,3320 K Ave,Plano,TX,75074,COLLIN,Super Store,33.039383,-96.697479,89166
870426,Sprouts Farmers Market 107,207 E Fm 544,Murphy,TX,75094,COLLIN,Supermarket,33.011536,-96.607933,90706
1106611,Kroger 578,2608 W Fm 544,Wylie,TX,75098,COLLIN,Super Store,33.01086,-96.575378,91466
1055530,Walmart 5657,3100 CUSTER RD,PLANO,TX,75075,COLLIN,Super Store,33.039501,-96.73201,92586
1109858,Walmart Neighborhood Market 4182,3312 Preston Rd,Plano,TX,75093,COLLIN,Super Store,33.043182,-96.794289,93623
1066386,Trader Joe's 402,2400 Preston Rd,Plano,TX,75093,COLLIN,Supermarket,33.029819,-96.794746,95561
1139676,Braum's 112,306 W Fm 544,Murphy,TX,75094,COLLIN,Other,33.011414,-96.61837,95857
1016358,ALDI 75040 75040,2220 Coit Rd,Plano,TX,75075,COLLIN,Supermarket,33.028835,-96.768845,96475
1236559,Braum's 86,6591 Eldorado Pkwy,McKinney,TX,75070,COLLIN,Other,33.174061,-96.703079,99098
1238254,Kroger 573,1250 N Preston Rd,Prosper,TX,75078,COLLIN,Super Store,33.251118,-96.784798,100107
1114431,Tom Thumb 2963,5550 FM 423,Frisco,TX,75034,COLLIN,Supermarket,33.125656,-96.889206,101583
1115676,Sprouts Farmers Market 132,9241 Virginia Pkwy,McKinney,TX,75071,COLLIN,Supermarket,33.202991,-96.734779,101701
1239159,Walmart Supercenter 7178,701 W Princeton Dr,Princeton,TX,75407,COLLIN,Super Store,33.175285,-96.511772,102632
1241643,Whole Foods Market 10613,1411 E Renner Rd,Richardson,TX,75082,COLLIN,Super Store,32.997341,-96.698959,102867
1022001,Costco Wholesale 1097,11220 Dallas Pkwy,Frisco,TX,75033,COLLIN,Super Store,33.171051,-96.839241,105227
1449246,BRAUM'S 295,2681 Sam Rayburn Hwy,Melissa,TX,75454,COLLIN,Other,33.286289,-96.556831,106727
1087517,Walmart Supercenter 5672,2662 West Lucas Rd,Lucas,TX,75002,COLLIN,Super Store,33.085583,-96.618454,107925
1076451,Walmart Neighborhood Market 3199,3513 E Park Blvd,Plano,TX,75074,COLLIN,Super Store,33.031029,-96.665985,108778
1647720,HEB Food Store #808 808,1230 Central Expy,Melissa,TX,75454,COLLIN,Supermarket,33.269199,-96.594345,113274
972165,Whole Foods Market 10358,105 Stacy Rd,Fairview,TX,75069,COLLIN,Super Store,33.131096,-96.656563,114910
1228316,Walmart Neighborhood Market 6966,3400 Virginia Pwky,McKinney,TX,75071,COLLIN,Super Store,33.196545,-96.663811,116545
1166845,Trader Joe's 408,2851 Craig Dr,McKinney,TX,75070,COLLIN,Supermarket,33.174339,-96.642097,118582
1275299,Walmart 6963,521 S Central Expy,Anna,TX,75409,COLLIN,Super Store,33.347778,-96.582985,119364
1249982,Sprouts Farmers Market 147,1265 W Exchange Pkwy,Allen,TX,75013,COLLIN,Supermarket,33.115196,-96.696602,119482
1250322,ALDI 75047 75047,8801 Stacy Rd,McKinney,TX,75070,COLLIN,Supermarket,33.152061,-96.730484,119906
1280071,India Bazaar,8450 Angels Dr,Plano,TX,75024,COLLIN,Super Store,33.092731,-96.801872,121119
1281821,Tom Thumb 3853,3001 Hardin Rd,McKinney,TX,75070,COLLIN,Supermarket,33.167217,-96.664665,124255
1280872,ALDI 75044,1730 N Greenville Ave,Allen,TX,75002,COLLIN,Supermarket,33.128445,-96.645531,124375
1179674,Walmart Neighborhood Market 6078,1400 McCreary Rd,Wylie,TX,75098,COLLIN,Super Store,33.033321,-96.594673,128006
1526002,Indopak Supermarket Murphy,420 Village Dr,Plano,TX,75094,COLLIN,Grocery Store,33.010017,-96.623466,129441
1285723,Madina Market Llc 1,1409 Shiloh Rd,Plano,TX,75074,COLLIN,Grocery Store,33.015465,-96.664581,129735
986012,Walmart Supercenter 2918,730 W Exchange Pkwy,Allen,TX,75013,COLLIN,Super Store,33.119598,-96.672356,130985
987894,Mi Bandera 1,1405 Jupiter Rd,Plano,TX,75074,COLLIN,Grocery Store,33.018913,-96.682617,138861
1328063,Costco 1284,3650 W University Dr,McKinney,TX,75071,COLLIN,Super Store,33.218891,-96.659622,139806
1329274,La Victoria Carniceria of Princeton LLC,5470 E Highway 380,Princeton,TX,75407,COLLIN,Grocery Store,33.181843,-96.530045,140353
1349883,99 Ranch Market 108,9292 Warren Parkway,Frisco,TX,75034,COLLIN,Supermarket,33.109188,-96.802765,141366
1349888,Kroger 565,1801 N Lake Forest Dr,McKinney,TX,75071,COLLIN,Super Store,33.212612,-96.680153,141380
1120796,Jusgo Supermarket,240 Legacy Dr,Plano,TX,75023,COLLIN,Super Store,33.068222,-96.695381,142442
1306522,Walmart Supercenter 202,16066 STATE HIGHWAY 121,Frisco,TX,75035,COLLIN,Super Store,33.125549,-96.73381,143981
1306526,Walmart Supercenter 6300,500 Richland Boulevard,Prosper,TX,75078,COLLIN,Super Store,33.22168,-96.771545,143984
1374437,Patel Brothers,8720 State Highway 121,McKinney,TX,75070,COLLIN,Super Store,33.127247,-96.728569,145222
1310421,Market Street 685,4268 Legacy Dr,Frisco,TX,75034,COLLIN,Supermarket,33.114704,-96.837608,146290
1400363,Green Vine Market,1804 K Ave,Plano,TX,75074,COLLIN,Supermarket,33.024357,-96.699104,147931
1384357,Subzi Mandi Plano,6921 Independence Pkwy,Plano,TX,75023,COLLIN,Supermarket,33.07114,-96.752739,148193
1461206,Classic International Market ,2310 Virginia Pkwy,McKinney,TX,75071,COLLIN,Grocery Store,33.198975,-96.642807,151005
1357193,Horizon Fresh Market,2901 W 15th St,Plano,TX,75075,COLLIN,Grocery Store,33.019382,-96.751152,157981
1434060,India Bazaar,14339 Eldorado Pkwy,Frisco,TX,75035,COLLIN,Other,33.174206,-96.751244,159460
1342025,Mazajna LLC,6726 Main St,Frisco,TX,75033,COLLIN,Grocery Store,33.151093,-96.827057,161430
1476479,Cccp Market,2304 Coit Rd,Plano,TX,75075,COLLIN,Grocery Store,33.028999,-96.768364,164316
1476740,Coconut Hill,1201 E Main St,Allen,TX,75002,COLLIN,Grocery Store,33.10067,-96.641319,164856
1454686,Island Spice Groceries And More,4043 Trinity Mills Rd,Dallas,TX,75287,COLLIN,Grocery Store,32.987774,-96.843361,166040
1465969,Indopak Supermarket Plano,2060 W Spring Creek Pkwy,Plano,TX,75023,COLLIN,Supermarket,33.058071,-96.73185,166951
1437244,Eli's African Market 1,1434 N Central Expy,McKinney,TX,75070,COLLIN,Grocery Store,33.210678,-96.636177,168080
1513782,Joe's International Market,153 S Central Express Way,Mckinney,TX,75070,COLLIN,Grocery Store,33.195759,-96.637703,169267
1611922,Sprouts Farmers Market 168,2201 Virginia Pkwy,McKinney,TX,75071,COLLIN,Supermarket,33.197479,-96.640045,171897
1491785,Grocery Services North 12,1028 E Park Blvd,Plano,TX,75074,COLLIN,Grocery Store,33.030998,-96.699829,172115
1516552,Nadeem Traders,7340 Highway 78,Sachse,TX,75048,COLLIN,Grocery Store,32.988071,-96.575081,172425
1482561,Braum's 300,1501 N Custer Rd,McKinney,TX,75071,COLLIN,Other,33.214493,-96.733002,176871
1466414,Modik African Market,8745 Gary Burns Dr,Frisco,TX,75034,COLLIN,Grocery Store,33.148956,-96.80674,177676
1502247,Er African Market n/a,1206 E Main St,Allen,TX,75002,COLLIN,Other,33.098965,-96.640427,179383
1536812,Sprouts Farmers Market 163,17795 Dallas Pkwy,Dallas,TX,75287,COLLIN,Supermarket,32.99176,-96.830734,180897
1486600,Blessliz Catering And African Market,1502 W University Dr,McKinney,TX,75069,COLLIN,Grocery Store,33.217003,-96.626266,181128
1519644,Enat Grocery,2901 W Fm 544,Wylie,TX,75098,COLLIN,Grocery Store,33.01181,-96.58725,181893
1671085,BRAUM'S 322,815 W Princeton Dr,Princeton,TX,75407,COLLIN,Other,33.175827,-96.515518,185464
1520582,HEB Food Store 790,6001 Preston Road Suite 100,Plano,TX,75093,COLLIN,Supermarket,33.055317,-96.795074,185712
1663208,Costco Wholesale 1739,1067 State Hwy 121,Allen,TX,75013,COLLIN,Super Store,33.130791,-96.715004,189974
1548311,Euro Delicatessen Too Inc,6832 Coit Rd,Plano,TX,75023,COLLIN,Grocery Store,33.070271,-96.770653,192636
1673004,Target Store 67,120 W Parker Rd,Plano,TX,75075,COLLIN,Super Store,33.037113,-96.707787,193043
1684843,Plano World Market,6100 K Ave,Plano,TX,75074,COLLIN,Grocery Store,33.057858,-96.689224,194833
1562248,HEB Food Store 796,575 E Exchange Pkwy,Allen,TX,75002,COLLIN,Supermarket,33.115696,-96.653694,199417
1553326,HEB Food Store 794,8700 Eldorado Pkwy,McKinney,TX,75070,COLLIN,Supermarket,33.175095,-96.728966,199524
1087198,Oasis International Market,6150 Independence Pkwy,Plano,TX,75023,COLLIN,Super Store,33.058586,-96.750305,201178
840126,Market Street 263,985 W Bethany Dr,Allen,TX,75013,COLLIN,Supermarket,33.08939,-96.684288,202396
1662537,HEB Food Store 809,2145 W Frontier Pkwy,Prosper,TX,75078,COLLIN,Supermarket,33.262897,-96.834175,203860
1555597,Africanplace Grocery,3201 W Fm 544,Wylie,TX,75098,COLLIN,Grocery Store,33.011868,-96.589767,206227
1309565,Blue Fig Market,4101 E Park Blvd,Plano,TX,75074,COLLIN,Grocery Store,33.03175,-96.648994,210521
839456,SPROUT FARMERS MARKET 105,5190 Preston Rd,Frisco,TX,75034,COLLIN,Supermarket,33.122078,-96.802689,211053
1689447,TRADER JOE'S MCKINNEY (WEST) 410,8101 Eldorado Pkwy,McKinney,TX,75070,COLLIN,Supermarket,33.174675,-96.723175,212377
1279380,Patel Brothers,6205 Coit Rd,Plano,TX,75024,COLLIN,Supermarket,33.057922,-96.770592,213521
1121945,Aspevero African Market,910 W Parker Rd,Plano,TX,75075,COLLIN,Grocery Store,33.040886,-96.714493,214631
1673546,Walmart 1484,1950 McKinney St,Melissa,TX,75454,COLLIN,Super Store,33.275051,-96.580078,216471
885158,Market Street 4566,1929 Preston Rd,Plano,TX,75093,COLLIN,Supermarket,33.025932,-96.799431,216526
1586502,La Tiendita,902 Greenville Rd,McKinney,TX,75069,COLLIN,Grocery Store,33.19574,-96.607109,216865
1134896,India Bazaar,8998 Preston Rd,Frisco,TX,75034,COLLIN,Super Store,33.151299,-96.803658,219843
1258209,Frisco Grocery Llc Dba  Patel Brothers,2787 Preston Rd,Frisco,TX,75034,COLLIN,Other,33.102394,-96.80574,226041
1563795,Target Store T2884,401 Gates Pkwy,Prosper,TX,75078,COLLIN,Super Store,33.221756,-96.805923,228299
1585417,Ztao Marketplace,2049 Coit Rd,Plano,TX,75075,COLLIN,Super Store,33.029751,-96.771568,232115
1609717,Varnav LLC,909 W Spring Creek Pkwy,Plano,TX,75023,COLLIN,Grocery Store,33.057369,-96.711182,238301
1670012,Walmart 263,16600 FM 423,Frisco,TX,75034,COLLIN,Super Store,33.216599,-96.878357,239281
1618106,Kroger 984,2721 Sam Rayburn Hwy,Melissa,TX,75454,COLLIN,Super Store,33.285374,-96.560493,240088
1613600,Southwest Farmers Market,7070 Preston Rd,Frisco,TX,75034,COLLIN,Grocery Store,33.137062,-96.803589,240206
1630757,Kroger 698,9617 Coit Rd,Plano,TX,75025,COLLIN,Super Store,33.108696,-96.768311,245193
1686848,Braum's 327,1340 W White St,Anna,TX,75409,COLLIN,Other,33.345329,-96.566559,246255
1644996,Hareli Fresh Market,10650 Coit Rd,Frisco,TX,75035,COLLIN,Other,33.152149,-96.867958,246517
1619700,Plano Halal Meats,6100 K Ave,Plano,TX,75074,COLLIN,Grocery Store,33.057743,-96.688934,246731
1183134,El Primo Store Inc,403 Short St,Mckinney,TX,75069,COLLIN,Grocery Store,33.191677,-96.612885,251575
1681430,India Bazaar,6701 Collin Mckinney Pkwy,Mckinney,TX,75070,COLLIN,Supermarket,33.143963,-96.707863,251625
1661401,India Metro Hypermarket,1480 S Independence Pkwy,Mckinney,TX,75072,COLLIN,Other,33.190701,-96.751289,251721
1670599,Altin Grocery,1201 N Central Expy,Plano,TX,75075,COLLIN,Other,33.01823,-96.710793,252118
1691516,WALMART 1250,400 Icy Trl,Celina,TX,75009,COLLIN,Super Store,33.321014,-96.762848,252787
1694558,Epic Market 101 1,4301 14th St,Plano,TX,75074,COLLIN,Supermarket,33.013687,-96.651245,254064
1533568,My Sasun,1922 Choate Pkwy,Celina,TX,75009,COLLIN,Grocery Store,33.292942,-96.751556,254752
